Brokertitle,Type,Price,Beds,Bath,Propertysqft,City,Address,Borough,Latitude,Longitude,Zip_code
Douglas Elliman,Condo,315000,2,2,1400,New York,"2 E 55th St Unit 803New York, NY 10022",MANHATTAN,40.761255,-73.9744834,10022
Serhant,Condo,195000000,7,10,17545,New York,"Central Park Tower Penthouse-217 W 57th New York St Unit PenthouseNew York, NY 10019",MANHATTAN,40.7663935,-73.9809909,10019
Sowae Corp,House,260000,4,2,2015,Staten Island,"620 Sinclair AveStaten Island, NY 10312",MANHATTAN,40.5418051,-74.1961086,10312
COMPASS,Condo,69000,3,1,445,Manhattan,"2 E 55th St Unit 908W33Manhattan, NY 10022",MANHATTAN,40.7613979,-73.9746128,10022
Sotheby's International Realty,Townhouse,55000000,7,2,14175,New York,"5 E 64th StNew York, NY 10065",MANHATTAN,40.7672235,-73.9698561,10065
Sowae Corp,House,690000,5,2,4004,Brooklyn,"584 Park PlBrooklyn, NY 11238",MANHATTAN,40.6743632,-73.9587248,11238
Douglas Elliman,Condo,899500,2,2,2184,New York,"157 W 126th St Unit 1BNew York, NY 10027",MANHATTAN,40.809448,-73.946777,10027
Connie Profaci Realty,House,16800000,8,16,33000,Staten Island,"177 Benedict RdStaten Island, NY 10304",MANHATTAN,40.5950017,-74.1064235,10304
Pantiga Group Inc.,Co-op,265000,1,1,750,Bronx,"875 Morrison Ave Apt 3MBronx, NY 10473",BRONX,40.8215857,-73.8740892,10473
CENTURY 21 MK Realty,Co-op,440000,2,1,978,Brooklyn,"1350 Ocean Pkwy Apt 5GBrooklyn, NY 11230",BROOKLYN,40.6157378,-73.9696944,11230
Engel & Volkers Americas,Co-op,375000,2,1,850,Bronx,"800 Grand Concourse Apt 2JSBronx, NY 10451",BRONX,40.8248699,-73.9229829,10451
Re/Max Edge,Townhouse,689000,3,2,1162,Staten Island,"456 Van Name AveStaten Island, NY 10303",MANHATTAN,40.6249962,-74.1553058,10303
COMPASS,Co-op,259000,3,1,2184,Jackson Heights,"34-41 85th St Unit 1DJackson Heights, NY 11372",QUEENS,40.7531191,-73.8818757,11372
Jamie & Connie Real Estate Grp,Co-op,430000,2,2,2184,Elmhurst,"91-15 Lamont Ave Unit 6DElmhurst, NY 11373",QUEENS,40.7438639,-73.8745722,11373
Corcoran Chelsea/Flatiron,Co-op,895000,3,1,2184,New York,"61 Jane St Apt 6NNew York, NY 10014",MANHATTAN,40.7382981,-74.0058899,10014
Awaye Realty,Condo,549000,2,2,1000,Staten Island,"4654 Amboy Rd Unit 2BStaten Island, NY 10312",STATEN_ISLAND,40.5406209,-74.1671632,10312
Realty Executives Today,Townhouse,975000,3,2,1734,Woodside,"28-31 Hobart StWoodside, NY 11377",MANHATTAN,40.7607676,-73.9056672,11377
Dorsa Group Realty,Co-op,199000,3,1,325,Brooklyn,"9430 Ridge Blvd Apt 6DBrooklyn, NY 11209",BROOKLYN,40.6181029,-74.0369047,11209
Coldwell Banker Realty,Co-op,350000,1,1,700,Bronx,"5800 Arlington Ave Apt 21ABronx, NY 10471",BRONX,40.9073699,-73.9065578,10471
Keller Williams Rlty Landmark,Condo,599000,2,2,974,Rego Park,"92-29 Queens Blvd Unit 3HRego Park, NY 11374",QUEENS,40.7324713,-73.8670804,11374
Radiant Estates LLC,House,639999,3,2,1260,Staten Island,"27 Clove WayStaten Island, NY 10301",MANHATTAN,40.6207403,-74.1114362,10301
"Apaus, Inc",Condo,1300000,2,2,1244,Forest Hills,"10724 71st Rd Apt 9FForest Hills, NY 11375",QUEENS,40.7202429,-73.8430513,11375
Keller Williams Ny Realty,Multi-family home,1100000,6,3,2837,Bronx,"1038 Throggs Neck Expy Unit SrBronx, NY 10465",MANHATTAN,40.8343936,-73.8221101,10465
Martino Realty Group,Condo,349900,1,1,651,Staten Island,"165 Cromwell Ave Apt 2BStaten Island, NY 10304",STATEN_ISLAND,40.5902064,-74.0958034,10304
Elizabeth Marra,House,750000,2,2,1330,Staten Island,"280 Loretto StStaten Island, NY 10307",MANHATTAN,40.5039785,-74.2396555,10307
CENTURY 21 Milestone Realty,Multi-family home,1690000,6,4,2200,Briarwood,"149-07 85 RdBriarwood, NY 11435",MANHATTAN,40.710749,-73.809486,11435
"Nest Seekers International, Long Island",Co-op,325000,1,1,2184,Queens,"35-45 81st St Unit E1Queens, NY 11372",QUEENS,40.7505078,-73.8851355,11372
Du Chris Realty,Co-op,230000,1,1,2184,Jackson Heights,"33-24 Junction Blvd Unit 6RJackson Heights, NY 11372",MANHATTAN,40.7557689,-73.8734231,11372
Ashford Homes,Multi-family home,1299888,10,6,3156,Staten Island,"310-312 Hillside AveStaten Island, NY 10304",STATEN_ISLAND,40.6155667,-74.0869554,10304
NoBroker,Multi-family home,925000,5,2,2750,Bronx,"543 Hollywood AveBronx, NY 10465",MANHATTAN,40.8242389,-73.8173809,10465
Get Listed Get Sold NYC,Condo,329000,1,2,794,Staten Island,"47 Lynn CtStaten Island, NY 10314",MANHATTAN,40.6210398,-74.1504313,10314
RJM Realty Empire Inc.,Multi-family home,1300000,10,8,5040,Staten Island,"366 Union Ave Unit 4Staten Island, NY 10303",STATEN_ISLAND,40.6274381,-74.1581613,10303
RE MAX Edge,Multi-family home,848000,5,4,2080,Brooklyn,"544 Hinsdale StBrooklyn, NY 11207",MANHATTAN,40.6615475,-73.898309,11207
H P Greenfield Real Estate Ltd,Co-op,279000,1,1,750,Brooklyn,"1801 Ocean Ave Apt 4ABrooklyn, NY 11230",BROOKLYN,40.6179165,-73.9546305,11230
Ashford Homes LLC,Condo,528000,1,1,602,Brooklyn,"1238 63rd St Unit 432Brooklyn, NY 11219",BROOKLYN,40.6275896,-74.0016198,11219
Ashford Homes,Multi-family home,1299888,11,4,3156,Staten Island,"310-312 Hillside AveStaten Island, NY 10304",STATEN_ISLAND,40.6155667,-74.0869554,10304
E Realty International Corp,Co-op,275000,1,1,2184,Flushing,"44-55 Kissena Blvd Unit 5FFlushing, NY 11355",QUEENS,40.7528774,-73.8211834,11355
Corcoran Park Slope,Condo,1165000,1,1,815,Brooklyn,"338 Berry St Apt 4EBrooklyn, NY 11249",BROOKLYN,40.711969,-73.9649468,11249
Staten Island Homes Realty Corp,Multi-family home,1199000,6,5,3290,Staten Island,"10 Simon CtStaten Island, NY 10307",MANHATTAN,40.5159256,-74.2361135,10307
Exp Realty,Multi-family home,700000,6,2,3053,Bronx,"229 W Tremont Ave Unit ABronx, NY 10453",MANHATTAN,40.852813,-73.9176871,10453
Century 21 Realty First,Multi-family home,2150000,8,4,3200,Brooklyn,"2226 63rd StBrooklyn, NY 11204",MANHATTAN,40.614446,-73.9795824,11204
E Realty International Corp,Multi-family home,1280000,7,5,2460,Woodhaven,"86-05 91st AveWoodhaven, NY 11421",MANHATTAN,40.688312,-73.856322,11421
Brown Harris Stevens,Co-op,199900,1,1,2184,Bronx,"828 Gerard Ave Apt 5FBronx, NY 10451",BRONX,40.8260352,-73.9256625,10451
Winzone Realty Inc,Co-op,369000,2,1,2184,Flushing,"43-40 Union St Unit 3DFlushing, NY 11355",QUEENS,40.753455,-73.8209077,11355
Prestige Homes Ny Inc,Multi-family home,699000,4,3,1591,Jamaica,"111-31 141st StJamaica, NY 11435",MANHATTAN,40.6847504,-73.8027331,11435
Brown Harris Stevens,Co-op,4250000,3,2,2400,Manhattan,"123 Prince St Unit 1Manhattan, NY 10012",MANHATTAN,40.725464,-73.9999212,10012
Weichert Realtors TMT Group,Multi-family home,825000,2,2,2184,Flushing,"32-39 Jordan StFlushing, NY 11358",MANHATTAN,40.768457,-73.789417,11358
American Homes Group,Condo,329000,2,1,837,Staten Island,"55 Austin Pl Apt 4LStaten Island, NY 10304",STATEN_ISLAND,40.6315346,-74.0856344,10304
Wonica REALTORS & Appraisers,Multi-family home,889000,2,2,1520,Staten Island,"17 S Greenleaf AveStaten Island, NY 10314",MANHATTAN,40.6233188,-74.1259917,10314
First Class Homes Inc,Multi-family home,769000,2,2,2184,Richmond Hill South,"101-55 112th StRichmond Hill South, NY 11419",MANHATTAN,40.6868333,-73.8309133,11419
eXp Realty BKNY,Multi-family home,1200000,4,2,2536,Brooklyn,"66 Bay 22nd StBrooklyn, NY 11214",MANHATTAN,40.6042861,-74.0012526,11214
VYLLA HOME,Co-op,220500,2,1,900,Staten Island,"350 Richmond Ter Apt 3MStaten Island, NY 10301",STATEN_ISLAND,40.6481488,-74.0847983,10301
RE MAX Edge,Multi-family home,1999000,3,3,2739,Brooklyn,"259 80th StBrooklyn, NY 11209",MANHATTAN,40.6281691,-74.0297598,11209
Douglas Elliman,Co-op,3250000,2,2,1300,New York,"240 Centre St Unit 2MNew York, NY 10013",MANHATTAN,40.7199716,-73.9980266,10013
Douglas Elliman,Condo,1650000,2,2,1267,Brooklyn,"473 Hicks St Apt 4Brooklyn, NY 11231",BROOKLYN,40.6866098,-73.9997131,11231
"Homes R Us Realty of NY, Inc.",Multi-family home,1049000,4,4,2554,Staten Island,"342 Manhattan StStaten Island, NY 10307",MANHATTAN,40.5016233,-74.2417531,10307
American Homes Group,House,998800,3,4,2400,Staten Island,"1191 Clove RdStaten Island, NY 10301",MANHATTAN,40.6175,-74.103996,10301
DEGI,For sale,3150000,3,2,1952,Brooklyn,"184 Lincoln Pl Unit 2Brooklyn, NY 11217",BROOKLYN,40.6754035,-73.9742051,11217
Brown Harris Stevens,Co-op,849000,1,1,2184,Manhattan,"263 W End Ave Apt 14CManhattan, NY 10023",MANHATTAN,40.7802357,-73.9846328,10023
Piastro Realty LLC,Co-op,559500,1,1,800,Brooklyn,"50 Brighton 1 Rd Unit 5HBrooklyn, NY 11235",BROOKLYN,40.5751942,-73.9669983,11235
Douglas Elliman,Co-op,750000,1,1,835,New York,"333 E 66th St Apt 8ENew York, NY 10065",MANHATTAN,40.7643711,-73.9593578,10065
Douglas Elliman,Condo,1900000,2,2,1029,New York,"150 Rivington St Apt 3GNew York, NY 10002",MANHATTAN,40.7193408,-73.9856438,10002
Corcoran Williamsburg Bedford,Condo,1250000,2,2,1201,Brooklyn,"1105 Cortelyou Rd # 301Brooklyn, NY 11218",BROOKLYN,40.6400234,-73.9676099,11218
COMPASS,Condo,1395000,2,2,1182,Brooklyn,"737 Bergen St Apt 1BBrooklyn, NY 11238",BROOKLYN,40.6787789,-73.9643728,11238
Monticello Real Estate Group,Co-op,198000,1,1,2184,Woodhaven,"83-55 Woodhaven Blvd Unit 1AWoodhaven, NY 11421",QUEENS,40.700309,-73.8535466,11421
Better Homes and Gardens Real Estate Safari Realty,Contingent,619888,3,2,1400,Staten Island,"35 Center PlStaten Island, NY 10306",MANHATTAN,40.5632116,-74.1002521,10306
Ashford Homes,Multi-family home,1489000,6,2,3780,Staten Island,"205 Wiman AveStaten Island, NY 10308",MANHATTAN,40.5395319,-74.1450877,10308
Sotheby's International Realty,Townhouse,65000000,3,2,15200,New York,"4 E 79th StNew York, NY 10075",MANHATTAN,40.7765613,-73.9633167,10075
Serhant,Condo,1595000,3,3,1413,Brooklyn,"924 Lafayette Ave Unit PhBrooklyn, NY 11221",MANHATTAN,40.6915139,-73.935444,11221
Douglas Elliman,Condo,655000,3,2,803,Brooklyn,"1504 Jefferson Ave Unit GardenbBrooklyn, NY 11237",MANHATTAN,40.6967268,-73.9074036,11237
Serhant,Condo,1175000,2,2,1115,Brooklyn,"924 Lafayette Ave Apt 2Brooklyn, NY 11221",BROOKLYN,40.6915139,-73.935444,11221
E Realty International Corp,Multi-family home,2880000,9,2,2350,Whitestone,"16-33 166th StWhitestone, NY 11357",MANHATTAN,40.7832094,-73.7967588,11357
Momentum Real Estate LLC,Multi-family home,798000,3,4,2150,Staten Island,"425 Father Capodanno BlvdStaten Island, NY 10305",MANHATTAN,40.5874844,-74.0701056,10305
"Apaus, Inc",Land,1685000,3,2,2184,Ridgewood,"519 Fairview AveRidgewood, NY 11385",MANHATTAN,40.7083434,-73.9081614,11385
Corcoran Chelsea/Flatiron,Condo,31000000,3,4,4492,New York,"111 W 57th St # 50New York, NY 10019",MANHATTAN,40.764953,-73.977568,10019
"Dom Realty, Inc",Land,2550000,3,2,2184,Brooklyn,"234 Ocean View AveBrooklyn, NY 11235",MANHATTAN,40.5785288,-73.9655666,11235
Meyers Enterprise Realty Group,Land,119000,3,2,2184,Bronx,"3652 DE Reimer AveBronx, NY 10466",MANHATTAN,40.8841699,-73.8388387,10466
Gosen Properties Inc,Foreclosure,269000,5,2,2184,Rosedale,"24149 148th DrRosedale, NY 11422",MANHATTAN,40.6534433,-73.741373,11422
Douglas Elliman,Condo,1650000,2,2,1065,New York,"200 E 94th St Apt 414New York, NY 10128",MANHATTAN,40.7833546,-73.9499982,10128
Douglas Elliman,Condo,1650000,2,2,1065,New York,"200 E 94th St Apt 414New York, NY 10128",MANHATTAN,40.7833546,-73.9499982,10128
COMPASS,Townhouse,12950000,5,4,3344,Manhattan,"214 W 11th StManhattan, NY 10014",MANHATTAN,40.7363219,-74.0018035,10014
Brown Harris Stevens,Condo,5750000,3,2,2223,Manhattan,"250 E 21st St Unit 12BManhattan, NY 10010",MANHATTAN,40.736608,-73.9822819,10010
Sowae Corp,Multi-family home,250000,5,2,2184,Jamaica,"130-24 150th StJamaica, NY 11436",MANHATTAN,40.66911,-73.789339,11436
Charles Rutenberg Realty Inc,Pending,950000,6,2,3384,Jamaica,"254-06 Craft Ave Unit 2Jamaica, NY 11422",QUEENS,40.6499031,-73.7354706,11422
Keller Williams Realty Empire,House,585000,3,2,1100,Staten Island,"192 Colfax AveStaten Island, NY 10306",MANHATTAN,40.5784263,-74.105437,10306
BROWN HARRIS STEVENS BROOKLYN LLC,House,8750000,6,6,2184,Brooklyn,"8200 Narrows AveBrooklyn, NY 11209",MANHATTAN,40.6282935,-74.0379695,11209
"Tom Marco Real Estate, Inc.",House,595000,3,1,1316,Brooklyn,"1509 E 48th StBrooklyn, NY 11234",MANHATTAN,40.6239146,-73.9291226,11234
Engel & Volkers Brownstone Brooklyn,Condo,215000,1,1,625,New York,"195 Prince St Unit 1LLNew York, NY 10012",MANHATTAN,40.7267732,-74.002538,10012
Built by Toll Brothers,For sale,950000,1,1,621,New York,"The Rockwell # 3ANew York, NY 10025",MANHATTAN,40.7986579,-73.9679035,10025
Sowae Corp,House,314000,3,1,1572,Brooklyn,"850 E 39th StBrooklyn, NY 11210",MANHATTAN,40.6362368,-73.939679,11210
Brown Harris Stevens,Condo,395000,5,1,1000,Manhattan,"110 E 71st St Unit MedicalManhattan, NY 10021",MANHATTAN,40.7700395,-73.9638872,10021
Prospes Real Estate Corp,Multi-family home,600000,2,2,2184,Bronx,"1406 Mac Donough PlBronx, NY 10465",MANHATTAN,40.8429545,-73.8249591,10465
EXP Realty,Multi-family home,790000,6,3,2520,Staten Island,"78 Mountainview AveStaten Island, NY 10314",MANHATTAN,40.6105856,-74.1268175,10314
STROFFOLINO REALTY LLC,Co-op,539000,2,2,1100,Brooklyn,"9425 Shore Rd Apt 4FBrooklyn, NY 11209",BROOKLYN,40.6170731,-74.0383836,11209
Douglas Elliman,Co-op,1295000,4,2,1995,Bronx,"2501 Palisade Ave Apt H2Bronx, NY 10463",BRONX,40.8809873,-73.9224337,10463
Sowae Corp,House,245000,3,1,2184,Bronx,"2942 Lurting AveBronx, NY 10469",MANHATTAN,40.8690109,-73.8564445,10469
Americas Real Estate Advisors,House,400000,7,3,2385,Bronx,"340 E 234th StBronx, NY 10470",MANHATTAN,40.8969146,-73.8654984,10470
Douglas Elliman,House,55000000,8,8,12000,New York,"25 Riverside DrNew York, NY 10023",MANHATTAN,40.782238,-73.9846322,10023
Brown Harris Stevens,Co-op,280000,1,1,1000,Brooklyn,"8015 6th Ave Apt A1Brooklyn, NY 11209",BROOKLYN,40.6241766,-74.0216837,11209
Top Choice Realty LLC,House,899000,3,2,1440,Staten Island,"40 Adelphi AveStaten Island, NY 10309",MANHATTAN,40.5159004,-74.2314825,10309
Built by Toll Brothers,For sale,2280000,2,2,1400,New York,"The Rockwell # 6ENew York, NY 10025",MANHATTAN,40.7986579,-73.9679035,10025
Cross Country Realty,Coming Soon,649000,4,3,2184,Brooklyn,"194 Carroll StBrooklyn, NY 11231",MANHATTAN,40.6813429,-73.9981509,11231
Charles Rutenberg Realty Inc,Pending,739000,6,4,2184,Brooklyn,"38 Dare CtBrooklyn, NY 11229",MANHATTAN,40.5877991,-73.9216187,11229
AmeriHomes Realty,House,1495000,4,2,3000,Staten Island,"31 4th CtStaten Island, NY 10312",MANHATTAN,40.5247627,-74.1681035,10312
Douglas Elliman,House,3950000,5,2,3528,Brooklyn,"591 4th StBrooklyn, NY 11215",MANHATTAN,40.6680619,-73.9748375,11215
Avenues,Condo,325000,2,1,979,New York,"122 E 102nd St Apt 5BNew York, NY 10029",MANHATTAN,40.7897507,-73.9487257,10029
Corcoran Chelsea/Flatiron,Pending,299999,3,1,2184,New York,"215 W 75th St Apt 4DNew York, NY 10023",MANHATTAN,40.7810583,-73.9808407,10023
Sotheby's International Realty,Townhouse,2695000,6,5,4720,New York,"327 Convent AveNew York, NY 10031",MANHATTAN,40.8235127,-73.9467514,10031
NoBroker,Pending,4800000,6,2,3958,Brooklyn,"1151 83rd StBrooklyn, NY 11228",MANHATTAN,40.6178184,-74.0151165,11228
Compass Realty Central Inc.,House,694000,3,3,1360,Staten Island,"364 Armstrong AveStaten Island, NY 10308",MANHATTAN,40.5423126,-74.1555672,10308
Douglas Elliman,House,688888,4,2,2846,Bronx,"761 S Oak DrBronx, NY 10467",MANHATTAN,40.8726182,-73.8651768,10467
Sowae Corp,House,400000,4,2,1980,Brooklyn,"781 Sheperd AveBrooklyn, NY 11208",MANHATTAN,40.665357,-73.8770867,11208
Sowae Corp,Multi-family home,346000,5,2,2184,Ozone Park,"103-12 104th StOzone Park, NY 11417",MANHATTAN,40.6837891,-73.8381042,11417
Sowae Corp,House,400000,4,2,1980,Brooklyn,"781 Sheperd AveBrooklyn, NY 11208",MANHATTAN,40.665357,-73.8770867,11208
Sowae Corp,Multi-family home,346000,5,2,2184,Ozone Park,"103-12 104th StOzone Park, NY 11417",MANHATTAN,40.6837891,-73.8381042,11417
Sowae Corp,House,265000,3,1,2184,Springfield Gardens,"135-38 224th StSpringfield Gardens, NY 11413",MANHATTAN,40.67538,-73.7472571,11413
Winzone Realty Inc,House,319000,3,2,1224,Staten Island,"57 Neutral AveStaten Island, NY 10306",MANHATTAN,40.5604695,-74.1018925,10306
Corcoran East Side,Townhouse,24800000,6,8,2184,New York,"45 E 74th StNew York, NY 10021",MANHATTAN,40.772929,-73.9635462,10021
Exp Realty,House,1100000,9,4,3276,New York,"421 W 154th StNew York, NY 10032",MANHATTAN,40.8307115,-73.9424229,10032
Sowae Corp,Multi-family home,309000,6,2,2184,Far Rockaway,"2918 Brookhaven AveFar Rockaway, NY 11691",MANHATTAN,40.5980695,-73.7632649,11691
Keller Williams Realty Liberty,House,650000,3,2,1522,Bellerose,"237-14 93rd RdBellerose, NY 11426",MANHATTAN,40.723245,-73.7293286,11426
Rise Realty,House,799000,4,2,1975,Staten Island,"604 Lamont AveStaten Island, NY 10312",MANHATTAN,40.5387812,-74.193378,10312
Berkshire Hathaway HomeServices New York Properties,Co-op,259000,3,2,1089,Bronx,"7E Edgewater Park Unit EBronx, NY 10465",MANHATTAN,40.8246371,-73.8072061,10465
DiTommaso Real Estate,House,1195000,4,4,2704,Staten Island,"52 Indale AveStaten Island, NY 10309",MANHATTAN,40.5143019,-74.2044734,10309
Serhant,Condo,17500000,5,6,5499,New York,"37 Warren St Unit PhcdNew York, NY 10007",MANHATTAN,40.7143354,-74.0087443,10007
Salmon Realty Group,Condo,189000,2,2,966,Staten Island,"20 Cliff St Apt 6DStaten Island, NY 10305",STATEN_ISLAND,40.6109595,-74.060351,10305
Midas Realty,Condo,759000,3,2,1200,Bayside,"206-04 Emily Rd Unit 37MBayside, NY 11360",QUEENS,40.7881763,-73.7877051,11360
ONLY NINE REALTY LLC,House,275000,4,1,2184,Brooklyn,"579 E 29th StBrooklyn, NY 11210",MANHATTAN,40.6366859,-73.9488175,11210
COMPASS,Condo,499000,1,1,630,Manhattan,"157 E 72nd St Apt 8IManhattan, NY 10021",MANHATTAN,40.7702318,-73.9610161,10021
TREBACH REALTY INC,House,1249000,3,2,2184,Bronx,"3021 Arlington AveBronx, NY 10463",MANHATTAN,40.8822913,-73.9137305,10463
Utopia Real Estate,Co-op,69900,2,1,700,Bronx,"61 Edgewater Park Unit BBronx, NY 10465",MANHATTAN,40.8224987,-73.8111568,10465
Rock Realty Inc,Multi-family home,1150000,12,6,5508,Astoria,"32-40 48 StAstoria, NY 11103",MANHATTAN,40.755049,-73.9136386,11103
"Island Advantage Rlty, Llc",Foreclosure,1749900,5,4,3740,New York,"517 W 142nd StNew York, NY 10031",MANHATTAN,40.824015,-73.9502067,10031
Charles H. Greenthal Property,Co-op,1399000,3,4,1993,Floral Park,"269-10 Grand Central Pkwy Unit 21WFloral Park, NY 11005",QUEENS,40.7566899,-73.72075,11005
Douglas Elliman,Condo,649000,3,2,1182,Fresh Meadows,"163-04 71st Ave Unit 122Fresh Meadows, NY 11365",QUEENS,40.7302938,-73.8059248,11365
WW Realty Group Inc,House,499000,5,2,1760,Bronx,"2774 Marion AveBronx, NY 10458",MANHATTAN,40.8663864,-73.8878945,10458
Julia B. Fee Sotheby's International Realty,Multi-family home,1050000,5,4,3132,Bronx,"2818 Miles AveBronx, NY 10465",MANHATTAN,40.8176549,-73.8197053,10465
COMPASS,Townhouse,5000000,10,9,6425,Manhattan,"137 W 80th StManhattan, NY 10024",MANHATTAN,40.7832598,-73.976047,10024
HOT HOMES REALTY LLC.,Pending,90000,1,1,660,Staten Island,"16 Mapleton AveStaten Island, NY 10306",MANHATTAN,40.574451,-74.0929448,10306
Douglas Elliman,House,56000000,11,10,24000,New York,"9 W 54th StNew York, NY 10019",MANHATTAN,40.7616,-73.9761913,10019
Exp Realty,Townhouse,650000,3,2,1638,Bronx,"1544 Ohm AveBronx, NY 10465",MANHATTAN,40.8454501,-73.8209766,10465
Douglas Elliman,Condo,500000,4,3,1794,New York,"251 W 89th St Apt 6ENew York, NY 10024",MANHATTAN,40.7905714,-73.9753392,10024
Real Estate Property Group LLC,House,350000,2,1,490,Staten Island,"750 Patterson AveStaten Island, NY 10306",MANHATTAN,40.5731273,-74.089182,10306
Corcoran Park Slope,House,1099000,4,2,2184,Queens,"204-34 9th AveQueens, NY 11697",MANHATTAN,40.5595612,-73.9147409,11697
RE MAX Boutique Realty,Co-op,90000,1,1,450,Bronx,"1383 Plimpton Ave Apt 1CBronx, NY 10452",BRONX,40.8423705,-73.9234444,10452
Laffey Real Estate,House,839000,4,2,2184,Howard Beach,"158-35 87th StHoward Beach, NY 11414",MANHATTAN,40.6590909,-73.8451972,11414
CENTURY 21 PROFESSIONAL REALTY,House,659000,8,3,2184,Jamaica,"148-05 111th AveJamaica, NY 11435",MANHATTAN,40.688533,-73.796529,11435
CENTURY 21 PROFESSIONAL REALTY,House,659000,8,3,2184,Jamaica,"148-05 111th AveJamaica, NY 11435",MANHATTAN,40.688533,-73.796529,11435
Anthony Napolitano Homes,House,399999,3,1,2184,Far Rockaway,"178 Beach 24th StFar Rockaway, NY 11691",MANHATTAN,40.5950021,-73.7577376,11691
Homefinders of SI Inc.,Condo,250000,3,1,2184,Brooklyn,"3105 Avenue V Apt 1FBrooklyn, NY 11229",BROOKLYN,40.5997081,-73.9344974,11229
Built by Toll Brothers,For sale,1740000,2,2,1132,New York,"The Rockwell # 6HNew York, NY 10025",MANHATTAN,40.7986579,-73.9679035,10025
Epiphany Realty Llc,House,650000,4,2,2244,Cambria Heights,"115115 220th StCambria Heights, NY 11411",MANHATTAN,40.6968706,-73.7390395,11411
Re/Max Edge,House,1165000,3,4,3500,Staten Island,"67 Dexter AveStaten Island, NY 10309",MANHATTAN,40.5397292,-74.2155251,10309
"Homes R Us Realty of NY, Inc.",House,729900,3,2,1150,Staten Island,"447 Vernon AveStaten Island, NY 10309",MANHATTAN,40.5302132,-74.1981906,10309
Winzone Realty Inc,House,1880000,3,4,3150,Brooklyn,"3758 Bayview AveBrooklyn, NY 11224",MANHATTAN,40.5805262,-74.0061062,11224
Charles H. Greenthal Property,Co-op,449000,2,2,1549,Floral Park,"26910 Grand Central Pkwy Apt 22LFloral Park, NY 11005",QUEENS,40.7577991,-73.7159564,11005
Keller Williams City Views,House,1175000,3,2,2250,Rockaway Park,"251 Beach 140th StRockaway Park, NY 11694",MANHATTAN,40.57372,-73.8577786,11694
"Garfield, Leslie J. & Co., Inc.",Townhouse,2750000,3,2,2184,New York,"16 Gay StNew York, NY 10014",MANHATTAN,40.7336687,-74.000518,10014
Hauseit LLC,House,995000,3,2,2184,Howard Beach,"159-03 83rd StHoward Beach, NY 11414",MANHATTAN,40.657686,-73.8489131,11414
COMPASS,Condo,2000000,3,2,2000,Manhattan,"200 Rector Pl Unit 27EFManhattan, NY 10280",MANHATTAN,40.7086444,-74.0161953,10280
Leven Real Estate,Townhouse,15000000,8,6,2184,Brooklyn,"126 Pierrepont StBrooklyn, NY 11201",MANHATTAN,40.6948972,-73.9925741,11201
RE MAX Edge,House,2800000,4,6,8333,Staten Island,"25 Copperleaf TerStaten Island, NY 10304",MANHATTAN,40.5861193,-74.1075476,10304
Keller Williams Rlty Landmark,House,2600000,5,4,3024,Bayside,"214-42 27th AveBayside, NY 11360",MANHATTAN,40.7780417,-73.7739629,11360
Corcoran West Side,Townhouse,3500000,6,6,6000,New York,"51 Hamilton TerNew York, NY 10031",MANHATTAN,40.8229141,-73.9460622,10031
Corcoran East Side,Co-op,550000,1,1,2184,New York,"609 Columbus Ave Apt 10INew York, NY 10024",MANHATTAN,40.7887084,-73.9700091,10024
E House Realty & Mgt. Inc.,Pending,769000,3,4,2184,Staten Island,"290 Lake AveStaten Island, NY 10303",MANHATTAN,40.6291962,-74.1518654,10303
TALK OF THE TOWN REALTY C,House,675000,3,2,2400,Brooklyn,"2519 Mill AveBrooklyn, NY 11234",MANHATTAN,40.610206,-73.91065,11234
Gateway Arms Realty Corp.,House,879000,4,2,1238,Staten Island,"48 Princewood AveStaten Island, NY 10309",MANHATTAN,40.5273247,-74.1983282,10309
KELLER WILLIAMS REALTY LANDMARK II,House,918888,3,2,2184,East Elmhurst,"30-36 88th StEast Elmhurst, NY 11369",MANHATTAN,40.760703,-73.880887,11369
COMPASS,Townhouse,2400000,4,2,1892,Brooklyn,"396 A 9th St Unit 2Brooklyn, NY 11215",MANHATTAN,40.6674938,-73.9832146,11215
Jamie & Connie Real Estate Grp,House,1730000,6,2,3024,Little Neck,"45-12 244th StLittle Neck, NY 11362",MANHATTAN,40.765022,-73.7422005,11362
Sowae Corp,Multi-family home,425000,5,2,2184,Bronx,"755 Coster StBronx, NY 10474",MANHATTAN,40.8159966,-73.8881001,10474
East Coast REALTORS Inc,House,2500000,5,2,1450,Flushing,"33-02 Parsons BlvdFlushing, NY 11354",MANHATTAN,40.7679673,-73.8246067,11354
RE MAX Elite,House,998000,4,4,2000,Staten Island,"336 Bethel AveStaten Island, NY 10307",MANHATTAN,40.515251,-74.235145,10307
Coldwell Banker Advantage,House,1195000,4,4,2688,Staten Island,"222 Hart BlvdStaten Island, NY 10301",MANHATTAN,40.6296431,-74.1005274,10301
RE MAX Real Estate Professionals,House,1649000,3,2,2052,Brooklyn,"1217 84th StBrooklyn, NY 11228",MANHATTAN,40.6164182,-74.0142443,11228
"Homes R Us Realty of NY, Inc.",House,955000,4,4,2100,Staten Island,"82 Vineland AveStaten Island, NY 10312",MANHATTAN,40.551184,-74.1840649,10312
LJ Realty Team Inc,Multi-family home,949000,6,3,2184,Jamaica,"117-37 141st StJamaica, NY 11436",MANHATTAN,40.677393,-73.800094,11436
Keller Williams Rlty Landmark,House,880000,3,2,1743,Flushing,"190-16 33rd AveFlushing, NY 11358",MANHATTAN,40.7668312,-73.7911175,11358
COMPASS,Townhouse,39995000,4,2,10582,Manhattan,"145 Reade StManhattan, NY 10013",MANHATTAN,40.7164224,-74.0101197,10013
Sotheby's International Realty,Townhouse,1250000,8,2,2184,New York,"246 E 58th St # ThNew York, NY 10022",MANHATTAN,40.7600248,-73.9653546,10022
"Tom Crimmins Realty, Ltd.",Contingent,899999,3,2,1784,Staten Island,"61 Prescott AveStaten Island, NY 10306",MANHATTAN,40.5788586,-74.11209,10306
J Milo Real Estate,Condo,198000,1,1,750,Queens,"118-18 Union Tpke Unit 7DQueens, NY 11415",QUEENS,40.7127599,-73.83433,11415
Howard Hanna | Rand Realty,House,549000,5,3,496,Bronx,"2808 Wickham AveBronx, NY 10469",MANHATTAN,40.8679701,-73.836565,10469
RE MAX Elite,House,1088888,3,4,1320,Brooklyn,"1568 W 2nd StBrooklyn, NY 11204",MANHATTAN,40.6090909,-73.9762651,11204
CAROZZA NICHOLAS M,House,888000,4,2,2686,Bronx,"3079 Giegerich PlBronx, NY 10465",MANHATTAN,40.8130775,-73.8063357,10465
All American Realty Management,For sale,65000,3,1,230,Manhattan,"1287266 45 Madison St Unit 1Manhattan, NY 10038",MANHATTAN,40.7120703,-73.9983258,10038
Real Broker NY LLC,House,1449999,3,2,2184,Long Island City,"21-89 47th StLong Island City, NY 11105",MANHATTAN,40.7697773,-73.9014478,11105
Serhant,Townhouse,14900000,5,5,2184,New York,"45 W 70th StNew York, NY 10023",MANHATTAN,40.7758194,-73.9785263,10023
Flateau Realty Corp,Coming Soon,1695000,5,2,2250,Ny,"871 Putnam AveNy, NY 11221",MANHATTAN,40.686947,-73.9261885,11221
EXP Realty,House,2499000,5,2,4100,Forest Hills,"152 Whitson StForest Hills, NY 11375",MANHATTAN,40.7107701,-73.8406935,11375
Sotheby's International Realty,Townhouse,1970000,4,4,2508,Brooklyn,"59 Duffield StBrooklyn, NY 11201",MANHATTAN,40.6965326,-73.9839654,11201
COMPASS,Co-op,1895000,2,2,2184,Brooklyn,"905 Union St Apt 1Brooklyn, NY 11215",BROOKLYN,40.673976,-73.973535,11215
DiTommaso Real Estate,House,689000,3,2,1248,Staten Island,"46 Kirshon AveStaten Island, NY 10314",MANHATTAN,40.6137764,-74.1600305,10314
Martino Realty Group,House,649999,3,2,1440,Staten Island,"219 Slater BlvdStaten Island, NY 10305",MANHATTAN,40.5803331,-74.0885167,10305
EXP Realty,House,669000,3,2,864,Staten Island,"74 Holly StStaten Island, NY 10304",MANHATTAN,40.5993523,-74.0953882,10304
Corcoran Westside Columbus,House,800000,3,2,825,Brooklyn,"1485 E 53rd StBrooklyn, NY 11234",MANHATTAN,40.6222734,-73.924094,11234
COMPASS,Co-op,2375000,1,2,2184,Manhattan,"10 Bleecker St Apt 5DManhattan, NY 10012",MANHATTAN,40.7252187,-73.9929764,10012
Corcoran West Side Gallery,For sale,2400000,6,6,6688,Brooklyn,"726 Nostrand AveBrooklyn, NY 11216",MANHATTAN,40.6738566,-73.9506085,11216
eXp Realty BKNY,House,390000,2,1,586,Staten Island,"231 Freeborn StStaten Island, NY 10306",MANHATTAN,40.574103,-74.0931668,10306
COMPASS,Condo,2250000,1,1,2184,Manhattan,"302 W 12th St Apt 7FManhattan, NY 10014",MANHATTAN,40.737308,-74.0046666,10014
RE MAX Edge,House,1450000,4,2,2700,Staten Island,"308 Poillon AveStaten Island, NY 10312",MANHATTAN,40.5273093,-74.1753435,10312
ROCKAWAY PROPERTIES,Condo,725000,2,2,792,Brooklyn,"627 Wilson Ave Apt 3Brooklyn, NY 11207",BROOKLYN,40.6898164,-73.9062474,11207
Sotheby's International Realty,Co-op,269000,1,1,2184,Bronx,"4901 Henry Hudson Pkwy W Apt 5FBronx, NY 10471",BRONX,40.8968048,-73.9087471,10471
COMPASS,Co-op,695000,2,2,2184,Manhattan,"575 Park Ave Unit 1101Manhattan, NY 10065",MANHATTAN,40.7651716,-73.9678719,10065
Winzone Realty Inc,House,1300000,3,2,2184,Bronx,"246 Newman AveBronx, NY 10473",MANHATTAN,40.8109146,-73.853921,10473
Ilite Realty Inc,Co-op,459000,3,2,1250,Brooklyn,"2475 W 16th St Apt 19HBrooklyn, NY 11214",MANHATTAN,40.5866482,-73.9845156,11214
"Robert DeFalco Realty, Inc.",House,689999,3,2,1008,Staten Island,"596 College AveStaten Island, NY 10302",MANHATTAN,40.621814,-74.1406264,10302
Winzone Realty Inc,Co-op,425000,3,2,1405,Corona,"58-03 Calloway St Unit 2P2Corona, NY 11368",MANHATTAN,40.7381853,-73.8581248,11368
Douglas Elliman,House,10000000,5,4,6800,New York,"166 E 64th StNew York, NY 10065",MANHATTAN,40.764989,-73.9655331,10065
Byson Real Estate Company,Co-op,1525000,2,2,2184,New York,"67 Riverside Dr Apt 1CNew York, NY 10024",MANHATTAN,40.784623,-73.9826586,10024
Brp Associates Inc,Multi-family home,1499000,9,6,3519,Brooklyn,"2619 Shore PkwyBrooklyn, NY 11223",MANHATTAN,40.583514,-73.9738903,11223
COMPASS,Co-op,695000,2,2,2184,Manhattan,"575 Park Ave Unit 1101Manhattan, NY 10065",MANHATTAN,40.7651716,-73.9678719,10065
Winzone Realty Inc,House,1300000,3,2,2184,Bronx,"246 Newman AveBronx, NY 10473",MANHATTAN,40.8109146,-73.853921,10473
Sotheby's International Realty,Co-op,269000,1,1,2184,Bronx,"4901 Henry Hudson Pkwy W Apt 5FBronx, NY 10471",BRONX,40.8968048,-73.9087471,10471
Winzone Realty Inc,Co-op,425000,3,2,1405,Corona,"58-03 Calloway St Unit 2P2Corona, NY 11368",MANHATTAN,40.7381853,-73.8581248,11368
Brp Associates Inc,Multi-family home,1499000,9,6,3519,Brooklyn,"2619 Shore PkwyBrooklyn, NY 11223",MANHATTAN,40.583514,-73.9738903,11223
"Robert DeFalco Realty, Inc.",House,519000,3,2,1480,Staten Island,"62 Simmons LnStaten Island, NY 10314",MANHATTAN,40.5939378,-74.1843153,10314
Queens Quality Management,Co-op,358000,2,1,2184,Bayside,"212-79 16 Ave Unit 183Bayside, NY 11360",QUEENS,40.7855174,-73.7797613,11360
COMPASS,Co-op,975000,3,1,2184,Manhattan,"360 W 22nd St Apt 9JManhattan, NY 10011",MANHATTAN,40.7455051,-74.0016003,10011
CHRISTIE'S INT.REAL ESTATE GROUP,Townhouse,29200000,12,10,11638,New York,"123 E 35th StNew York, NY 10016",MANHATTAN,40.747472,-73.9796788,10016
Pride Estates,Co-op,498000,2,1,975,Brooklyn,"138 71st St Apt E10Brooklyn, NY 11209",BROOKLYN,40.6351164,-74.0311609,11209
Laffey Real Estate,Co-op,385000,1,2,900,Bayside,"1805 215th St Apt 4SBayside, NY 11360",QUEENS,40.7839299,-73.77643,11360
Progress Realty Inc.,Multi-family home,999000,6,2,3144,Bronx,"851 Van Nest AveBronx, NY 10462",MANHATTAN,40.8451067,-73.8601577,10462
COMPASS,Co-op,399000,1,1,2184,Jackson Heights,"34-41 85th St Unit 3UJackson Heights, NY 11372",QUEENS,40.7531191,-73.8818757,11372
Staten Island Premiere Properties,Contingent,599000,4,4,2800,Staten Island,"77 Harbour CtStaten Island, NY 10308",MANHATTAN,40.5387352,-74.1423893,10308
"Dynasty Real Estate, Inc.",Townhouse,699998,3,2,1548,Staten Island,"159 Freedom AveStaten Island, NY 10314",MANHATTAN,40.5953144,-74.1628286,10314
Daniel Gale Sotheby's International Realty,Co-op,1088000,5,2,2184,Forest Hills,"20 Continental Ave Unit 5EFForest Hills, NY 11375",QUEENS,40.7186003,-73.8453488,11375
WW Realty Group Inc,House,999000,6,2,1280,Bronx,"3426 Boller AveBronx, NY 10475",MANHATTAN,40.8808173,-73.8350832,10475
New York Realty Minimax,Multi-family home,1188888,15,9,2184,Ridgewood,"677 Grandview AveRidgewood, NY 11385",MANHATTAN,40.7075546,-73.9036964,11385
NextHome Residential,Co-op,265000,1,1,700,Bayside,"23-45 Bell Blvd Unit 5KBayside, NY 11360",QUEENS,40.7824499,-73.7765099,11360
"MAXIMILLION REALTY, INC.",Co-op,288000,1,1,845,Brooklyn,"3901 Nostrand Ave Apt 4CBrooklyn, NY 11235",BROOKLYN,40.5894827,-73.9395372,11235
COMPASS,Co-op,999995,3,2,1750,Manhattan,"205 E 63rd St Unit 11EFManhattan, NY 10065",MANHATTAN,40.7640501,-73.964336,10065
Corcoran East Side,Co-op,1495000,2,2,1350,New York,"200 E 74th St Apt 6BNew York, NY 10021",MANHATTAN,40.7708195,-73.9595235,10021
Corcoran Park Avenue South,Co-op,925000,1,1,1000,New York,"235 E 73rd St # 4BNew York, NY 10021",MANHATTAN,40.7699425,-73.9583558,10021
Realty Connect USA LLC,Co-op,349000,2,1,2184,Kew Gardens,"84-70 129 St N Unit 5UKew Gardens, NY 11415",QUEENS,40.7050355,-73.8241699,11415
AI Realty Brokerage LLC,Condo,2000000,4,4,3000,New York,"444 E 57th St Apt 2DNew York, NY 10022",MANHATTAN,40.7573479,-73.9614914,10022
Century 21 Realty First,Condo,839000,3,2,1376,Brooklyn,"8895 26th Ave Apt 5ABrooklyn, NY 11214",MANHATTAN,40.5905451,-73.9910402,11214
Platinum Properties of Long Island,Co-op,329000,1,1,820,Forest Hills,"111-39 76th Rd Unit E6Forest Hills, NY 11375",QUEENS,40.7157399,-73.83672,11375
Keller Williams Hudson Valley,Multi-family home,899000,6,3,3683,Bronx,"948 E 217th StBronx, NY 10469",MANHATTAN,40.8796143,-73.856153,10469
Citadel Circle Realty,House,615000,3,2,2184,Brownville,"534 Powell StBrownville, NY 11212",MANHATTAN,40.6610456,-73.9019953,11212
Sotheby's International Realty,Condo,800000,2,2,1257,New York,"309 E 108th St Apt 5FNew York, NY 10029",MANHATTAN,40.7917785,-73.9406204,10029
Coldwell Banker Advantage,Condo,430000,2,2,1248,Staten Island,"527 Willow Rd E Unit 2Staten Island, NY 10314",STATEN_ISLAND,40.6123868,-74.1511288,10314
Jessica Viola,Contingent,499000,3,2,1288,Staten Island,"625 Goethals Rd NStaten Island, NY 10314",MANHATTAN,40.6166867,-74.1576647,10314
Keller Williams Realty Liberty,Co-op,439500,3,2,1400,Kew Gardens,"83-80 118th St Unit 3OKew Gardens, NY 11415",QUEENS,40.7047878,-73.8344551,11415
Prime Properties Long Island,Co-op,299000,1,1,2184,Kew Gardens,"118-18 Union Tpke Unit 17GKew Gardens, NY 11415",QUEENS,40.7123992,-73.8339305,11415
"Robert DeFalco Realty, Inc.",House,2580000,8,2,6493,Staten Island,"60 Lyman PlStaten Island, NY 10304",MANHATTAN,40.6050685,-74.0969483,10304
RE MAX Distinguished Homes & Properties,Condo,200000,1,1,613,Bronx,"1700 Metropolitan Ave Apt MhBronx, NY 10462",MANHATTAN,40.840459,-73.8542045,10462
Oxford Property Group,Co-op,425000,3,1,2184,New York,"504 W 135th St Apt 1BNew York, NY 10031",MANHATTAN,40.8189893,-73.953108,10031
BESMATCH REAL ESTATE,Co-op,69000,1,1,850,Bronx,"1185 Anderson Ave Apt 2EBronx, NY 10452",BRONX,40.8366623,-73.9239586,10452
Corcoran West Side Gallery,Condo,1995000,3,2,1546,New York,"272 W 107th St Apt 8DNew York, NY 10025",MANHATTAN,40.8018548,-73.9672877,10025
COMPASS,Co-op,230000,1,1,620,Manhattan,"255 W 108th St Apt 1FManhattan, NY 10025",MANHATTAN,40.8028416,-73.9670229,10025
Crifasi Real Estate Inc,Co-op,220000,1,1,590,Briarwood,"82-35 134th St Unit 2DBriarwood, NY 11435",QUEENS,40.7130136,-73.8230375,11435
E Realty International Corp,Co-op,198000,3,1,2184,Flushing,"42-40 Bowne St Unit 6FFlushing, NY 11355",QUEENS,40.756144,-73.8213672,11355
Brown Harris Stevens,Co-op,1495000,1,2,2184,Manhattan,"48 Gramercy Park N Apt 1BManhattan, NY 10010",MANHATTAN,40.7382884,-73.9851838,10010
Corcoran West Side,Co-op,475000,1,1,615,New York,"520 E 90th St Apt 1LNew York, NY 10128",MANHATTAN,40.7779975,-73.9445342,10128
Rad Marketing Corp,Co-op,199900,2,1,2184,Rosedale,"234-04 131 Ave Unit 2Rosedale, NY 11422",QUEENS,40.6779049,-73.733881,11422
Joanne Costa Realty,House,1150000,2,2,1444,Staten Island,"91 Flagg CtStaten Island, NY 10304",MANHATTAN,40.5882505,-74.1087291,10304
Corcoran Park Slope,House,1575000,3,2,2184,Brooklyn,"530 4th StBrooklyn, NY 11215",MANHATTAN,40.6683947,-73.9762195,11215
KELLER WILLIAMS REALTY LANDMARK II,Co-op,229000,1,1,2184,Jackson Heights,"33-05 92nd St Unit 1BJackson Heights, NY 11372",QUEENS,40.7562792,-73.8758052,11372
Corcoran SoHo,For sale,2700000,8,4,2184,Brooklyn,"122 Willoughby AveBrooklyn, NY 11205",MANHATTAN,40.6914843,-73.9676428,11205
C J Robin's Real Estate,Condo,320000,2,2,936,Bronx,"1860 Story Ave Unit 36CBronx, NY 10473",BRONX,40.8236857,-73.8611313,10473
RE MAX Edge,Co-op,295000,2,1,700,Brooklyn,"1275 E 5th St Apt 6ABrooklyn, NY 11230",BROOKLYN,40.6196386,-73.9707307,11230
Spire Group Inc.,House,550000,3,2,2184,Brooklyn,"4211 Snyder AveBrooklyn, NY 11203",MANHATTAN,40.6498755,-73.9375091,11203
Serhant,Condo,285000,2,1,1000,Bronx,"1439 Metropolitan Ave Apt 6ABronx, NY 10462",BRONX,40.8362269,-73.8612346,10462
Voro Llc,Co-op,328000,1,1,800,Elmhurst,"83-30 Vietor Ave Unit 414Elmhurst, NY 11373",QUEENS,40.743059,-73.880983,11373
Skylux Realty,Multi-family home,1388000,4,3,2184,Flushing,"25-02 169th StFlushing, NY 11358",MANHATTAN,40.774158,-73.7957477,11358
EXP Realty,Multi-family home,3000000,10,10,2184,Brooklyn Heights,"120 Pierrepont StBrooklyn Heights, NY 11201",MANHATTAN,40.6949321,-73.9928542,11201
New York Realty Minimax,Multi-family home,2198888,7,6,2184,Ridgewood,"662 Seneca AveRidgewood, NY 11385",MANHATTAN,40.7032697,-73.9088462,11385
Howard Hanna | Rand Realty,Multi-family home,650000,6,2,2310,Bronx,"936 Taylor AveBronx, NY 10473",MANHATTAN,40.8244358,-73.8633737,10473
Corcoran Park Avenue South,Condo,1100000,1,2,890,New York,"247 W 46th St Apt 1506New York, NY 10036",MANHATTAN,40.7598542,-73.9874427,10036
Gosen Properties Inc,Townhouse,2649000,5,4,4050,Brooklyn,"282 Macon StBrooklyn, NY 11216",MANHATTAN,40.6820924,-73.9393924,11216
Corcoran Park Slope,Co-op,849000,2,1,800,Brooklyn,"299 13th St Apt 3DBrooklyn, NY 11215",BROOKLYN,40.6662599,-73.9870141,11215
Sotheby's International Realty,For sale,6500000,2,2,2184,New York,"995 Fifth Ave Apt 11NNew York, NY 10028",MANHATTAN,40.778004,-73.962547,10028
HOULIHAN LAWRENCE,Co-op,560000,3,1,550,New York,"165 W End Ave Apt 16CNew York, NY 10023",MANHATTAN,40.777244,-73.9868738,10023
Corcoran Park Avenue South,Condo,1100000,1,2,890,New York,"247 W 46th St Apt 1506New York, NY 10036",MANHATTAN,40.7598542,-73.9874427,10036
Gosen Properties Inc,Townhouse,2649000,5,4,4050,Brooklyn,"282 Macon StBrooklyn, NY 11216",MANHATTAN,40.6820924,-73.9393924,11216
Corcoran Park Slope,Co-op,849000,2,1,800,Brooklyn,"299 13th St Apt 3DBrooklyn, NY 11215",BROOKLYN,40.6662599,-73.9870141,11215
RE MAX Elite,Co-op,418888,2,1,900,Brooklyn,"946 59th St Apt 4BBrooklyn, NY 11219",BROOKLYN,40.6339124,-74.0058434,11219
RE MAX Real Estate Professionals,Multi-family home,2600000,3,3,3978,Brooklyn,"99 Bay 11th StBrooklyn, NY 11228",MANHATTAN,40.6083914,-74.0100209,11228
Velez Realty Corp,Multi-family home,899000,8,2,2160,Bronx,"3214 Seymour AveBronx, NY 10469",MANHATTAN,40.8728082,-73.8469489,10469
CENTURY 21 Dawn's Gold Realty,Multi-family home,979000,8,3,2860,Brooklyn,"309 E 96th StBrooklyn, NY 11212",MANHATTAN,40.6597134,-73.9195979,11212
Sbny Re,Co-op,199000,1,1,2184,Forest Hills,"67-38 108 St Unit D5Forest Hills, NY 11375",QUEENS,40.7282899,-73.8472,11375
Sotheby's International Realty,For sale,815000,3,1,2184,New York,"310 E 46th St Apt 6SNew York, NY 10017",MANHATTAN,40.751918,-73.9698335,10017
Signature Premier Properties,Condo,1025000,1,1,800,New York,"460 E 79th St Apt 9FNew York, NY 10075",MANHATTAN,40.7712538,-73.950858,10075
COMPASS,Condo,1375000,1,2,920,Manhattan,"188 E 64th St Apt 802Manhattan, NY 10065",MANHATTAN,40.7645034,-73.9648503,10065
Keller Williams NYC,Condo,875000,3,2,1437,New York,"105 Bennett Ave Apt 21ANew York, NY 10033",MANHATTAN,40.8539526,-73.9345678,10033
"MAXIMILLION REALTY, INC.",Multi-family home,1350000,6,3,3000,Brooklyn,"2535 E 24th StBrooklyn, NY 11235",MANHATTAN,40.5902653,-73.9455056,11235
Corcoran Williamsburg Bedford,For sale,989000,7,3,2184,Brooklyn,"1408 Remsen AveBrooklyn, NY 11236",MANHATTAN,40.6360957,-73.9018295,11236
Scott Dobrin Realty,Multi-family home,815156,4,4,2945,Staten Island,"156 Davis AveStaten Island, NY 10310",MANHATTAN,40.6402659,-74.110402,10310
Momentum Real Estate Llc,Multi-family home,1949000,3,5,2560,Brooklyn,"11 Brighton 10th PathBrooklyn, NY 11235",MANHATTAN,40.5813374,-73.9589282,11235
Redfin Real Estate,Multi-family home,669000,5,2,1893,Far Rockaway,"418 Beach 37th StFar Rockaway, NY 11691",MANHATTAN,40.5967151,-73.7696424,11691
Fillmore Real Estate,Multi-family home,900500,4,2,2184,Brooklyn,"10716 Avenue JBrooklyn, NY 11236",MANHATTAN,40.6468871,-73.8907758,11236
CLAS,Co-op,1465000,3,3,2184,New York,"215 E 73rd St Unit 4ANew York, NY 10021",MANHATTAN,40.7701914,-73.9590118,10021
Sotheby's International Realty,For sale,899000,3,1,1100,New York,"529 W 42nd St Apt 2GNew York, NY 10036",MANHATTAN,40.7604194,-73.9968086,10036
COMPASS,Condo,1100000,1,1,726,Manhattan,"88 Greenwich St Apt 2307Manhattan, NY 10006",MANHATTAN,40.7078844,-74.0140879,10006
"Century 21 Amiable Realty Group II, Inc.",Multi-family home,1199000,6,5,2184,Howard Beach,"151-42 82nd StHoward Beach, NY 11414",MANHATTAN,40.6662035,-73.8525027,11414
Corcoran Chelsea/Flatiron,For sale,325000,2,1,2184,New York,"12 W 107th St Apt 2BNew York, NY 10025",MANHATTAN,40.7989043,-73.9604812,10025
New York Realty Minimax,Multi-family home,1230000,4,3,2184,Ridgewood,"74-06 64th LnRidgewood, NY 11385",MANHATTAN,40.700194,-73.8907488,11385
Brown Harris Stevens,Co-op,3950000,3,3,2184,Manhattan,"2 Sutton Pl S Apt 19FManhattan, NY 10022",MANHATTAN,40.7573949,-73.9606545,10022
ANNE LOPA REAL ESTATE,House,2147483647,7,6,10000,New York,"6659-6675 Amboy RdNew York, NY 10309",MANHATTAN,40.5184841,-74.2244185,10309
KELLER WILLIAMS REALTY LANDMARK II,Multi-family home,1350000,10,5,3383,Brooklyn,"188 Richmond StBrooklyn, NY 11208",MANHATTAN,40.6828535,-73.8769965,11208
OneSpace Realty Group LLC,House,799000,5,3,1800,Brooklyn,"1124 E 51st StBrooklyn, NY 11234",MANHATTAN,40.6336127,-73.9276041,11234
Keller Williams Realty Greater Nassau,House,1599000,5,3,5600,Staten Island,"1233 Todt Hill RdStaten Island, NY 10304",MANHATTAN,40.5813757,-74.1131912,10304
"Robert DeFalco Realty, Inc.",House,1299900,4,4,2755,Staten Island,"346 George StStaten Island, NY 10307",MANHATTAN,40.5065922,-74.2393503,10307
Corcoran Brooklyn Heights,Co-op,370000,1,1,2184,Brooklyn,"100 Remsen St Apt 3FBrooklyn, NY 11201",BROOKLYN,40.6939582,-73.9943695,11201
Living NY,For sale,3225,3,1,2184,New York,"635 W 170th St Apt 2CNew York, NY 10032",MANHATTAN,40.8434062,-73.9407947,10032
Douglas Elliman,Co-op,3649000,3,2,2184,New York,"11 W 30th St Apt 11FNew York, NY 10001",MANHATTAN,40.7464683,-73.9872992,10001
"Empire City Properties, LLC",Multi-family home,860000,5,3,2324,Brooklyn,"3743 Neptune AveBrooklyn, NY 11224",MANHATTAN,40.5768936,-74.0048793,11224
Re/Max Edge,House,765000,3,4,2205,Staten Island,"80 Longview RdStaten Island, NY 10304",MANHATTAN,40.611142,-74.0905357,10304
Douglas Elliman,Co-op,259000,1,1,750,Brooklyn,"3500 Snyder Ave Apt 5NBrooklyn, NY 11203",BROOKLYN,40.6491203,-73.9440658,11203
The Turner Realty Group Inc,Multi-family home,1500000,8,3,3135,Brooklyn,"1601 Nostrand AveBrooklyn, NY 11226",MANHATTAN,40.6471477,-73.9489423,11226
Brown Harris Stevens,Condo,850000,2,2,1005,Manhattan,"340 Cabrini Blvd Apt 501Manhattan, NY 10040",MANHATTAN,40.856444,-73.9377616,10040
Living NY,For sale,2494,2,1,2184,New York,"635 W 170th St Apt 4FNew York, NY 10032",MANHATTAN,40.8434062,-73.9407947,10032
5 Boro Realty Corp,Condo,99000,1,1,2184,Brooklyn,"1368 E 92nd St Unit 300Brooklyn, NY 11236",BROOKLYN,40.6372545,-73.9002674,11236
Douglas Elliman,Co-op,535000,1,1,750,Brooklyn,"192 E 8th St Apt 1CBrooklyn, NY 11218",BROOKLYN,40.6453011,-73.9723049,11218
Coldwell Banker Advantage,Multi-family home,849998,4,2,2342,Staten Island,"358 Lamoka AveStaten Island, NY 10312",MANHATTAN,40.5487767,-74.1629254,10312
Sotheby's International Realty,For sale,1100000,2,2,2184,New York,"2235 Frederick Douglass Blvd Apt 7KNew York, NY 10027",MANHATTAN,40.807426,-73.9535703,10027
SkyLimit Realty Group,Multi-family home,998000,5,3,1574,Maspeth,"60-17 59th AveMaspeth, NY 11378",MANHATTAN,40.7190856,-73.9060914,11378
CENTURY 21 Achievers,Multi-family home,1500000,3,2,2184,Brooklyn,"3115 Glenwood RdBrooklyn, NY 11210",MANHATTAN,40.634316,-73.9462919,11210
New Concept Sheiks Realty Inc.,Multi-family home,875000,6,3,2860,Bronx,"1779 Edenwald AveBronx, NY 10466",MANHATTAN,40.8920958,-73.8487361,10466
COMPASS,Condo,2350000,1,2,1144,Manhattan,"456 W 19th St Units 4 & 5CManhattan, NY 10011",MANHATTAN,40.7449256,-74.0057175,10011
BESMATCH REAL ESTATE,Multi-family home,850000,5,2,1908,Bronx,"4346 Edson AveBronx, NY 10466",MANHATTAN,40.8979269,-73.8463057,10466
Sotheby's International Realty,For sale,4000000,3,2,2248,New York,"445 Lafayette St Apt 14ANew York, NY 10003",MANHATTAN,40.7295412,-73.9913066,10003
Douglas Elliman,Co-op,1200000,3,2,2184,New York,"955 Lexington Ave Unit 5CNew York, NY 10021",MANHATTAN,40.7687538,-73.9631311,10021
Serhant,Condo,12000000,4,4,3809,New York,"67 Franklin St # ANew York, NY 10013",MANHATTAN,40.7174584,-74.0038831,10013
CHRISTIE'S INT.REAL ESTATE GROUP,Co-op,1300000,2,2,2184,New York,"269 W 87th St Apt 6CNew York, NY 10024",MANHATTAN,40.7895034,-73.9769713,10024
"Nest Seekers International, Westside",For sale,799000,3,1,585,New York,"240 Riverside Blvd Apt 3PNew York, NY 10069",MANHATTAN,40.7804721,-73.9871434,10069
Steven Corcoran Real Estate LLC,Co-op,339000,3,1,250,New York,"314 E 41st St Apt 303BNew York, NY 10017",MANHATTAN,40.7488879,-73.9723947,10017
RE MAX Distinguished Homes & Properties,Multi-family home,875000,7,5,2680,Bronx,"1126 Ward AveBronx, NY 10472",MANHATTAN,40.8270095,-73.8766285,10472
Keller Williams Realty NYC Grp,Multi-family home,799000,7,2,2296,Bronx,"1341 Fteley AveBronx, NY 10472",MANHATTAN,40.8333931,-73.8727914,10472
Keller Williams Realty NYC Grp,Multi-family home,799000,7,2,2296,Bronx,"1341 Fteley AveBronx, NY 10472",MANHATTAN,40.8333931,-73.8727914,10472
Sowae Corp,House,285000,2,1,1380,Queens Village,"102-15 215 StQueens Village, NY 11429",MANHATTAN,40.7128326,-73.7435779,11429
Century 21 AA Realty,Multi-family home,2499000,5,4,1340,Brooklyn,"181 Park AveBrooklyn, NY 11205",MANHATTAN,40.6962962,-73.9720502,11205
Douglas Elliman,Townhouse,795000,4,2,1440,New York,"42 Adrian AveNew York, NY 10463",MANHATTAN,40.8767388,-73.911189,10463
Douglas Elliman,Co-op,1799995,2,2,2184,New York,"207 E 74th St Unit 8MNew York, NY 10021",MANHATTAN,40.7708932,-73.9586258,10021
Sowae Corp,House,250000,3,2,1224,Howard Beach,"164-31 99 StHoward Beach, NY 11414",MANHATTAN,40.6505528,-73.8316736,11414
"Nest Seekers International, Internationa",For sale,5999000,3,3,3000,New York,"220 Riverside Blvd Apt 24GNew York, NY 10069",MANHATTAN,40.7798567,-73.9873973,10069
Douglas Elliman,Pending,668000,3,2,1606,Bellerose,"88-08 Gettysburg StBellerose, NY 11426",MANHATTAN,40.7299787,-73.7310756,11426
Hand In Hand Real Estate,House,699900,3,2,1470,Staten Island,"102 Lamberts LnStaten Island, NY 10314",MANHATTAN,40.6153952,-74.1610855,10314
Brownstone Real Estate LLC,Townhouse,5295000,4,4,4600,Brooklyn,"75 2nd PlBrooklyn, NY 11231",MANHATTAN,40.6800067,-73.9982111,11231
Extell Marketing Group LLC,Condo,2265000,2,2,1123,New York,"252 South St Unit 26LNew York, NY 10002",MANHATTAN,40.710456,-73.991235,10002
EXP Realty,Co-op,459000,2,1,950,Flushing,"142-05 Roosevelt Ave Unit 435Flushing, NY 11354",QUEENS,40.7607942,-73.8258766,11354
J Milo Real Estate,Multi-family home,1369000,4,2,2900,Staten Island,"7 Stalie CtStaten Island, NY 10309",MANHATTAN,40.5239722,-74.2213406,10309
True North Realty Luxury Homes,House,879000,4,2,2184,Bellerose,"87-45 253rd StBellerose, NY 11426",MANHATTAN,40.7294367,-73.7125595,11426
Douglas Elliman,Condo,559000,1,1,679,New York,"161 E 110th St Apt 6GNew York, NY 10029",MANHATTAN,40.7945743,-73.9434214,10029
New York Realty Minimax,Multi-family home,869888,4,3,2184,Richmond Hill,"86-27 125th StRichmond Hill, NY 11418",MANHATTAN,40.7019014,-73.8256776,11418
Keller Williams Rlty Landmark,House,799888,3,2,2184,Middle Village,"62-24 65 StMiddle Village, NY 11379",MANHATTAN,40.7138975,-73.8970229,11379
Berkshire Hathaway HomeServices Cangiano Estates,House,749000,4,1,1040,Staten Island,"29 Canterbury AveStaten Island, NY 10314",MANHATTAN,40.6165347,-74.1507186,10314
NoBroker,House,499000,2,3,2184,Saint Albans,"119-44 193rd StSaint Albans, NY 11412",MANHATTAN,40.6886004,-73.7568067,11412
Douglas Elliman,House,1295000,3,4,2193,New York,"269 W 87th St Apt 7BNew York, NY 10024",MANHATTAN,40.7895034,-73.9769713,10024
J. Milo Real Estate Ltd,Pending,879900,3,2,2242,Staten Island,"640 Sheldon AveStaten Island, NY 10312",MANHATTAN,40.5409077,-74.1964937,10312
Corcoran SoHo,Co-op,400000,2,2,1150,Bronx,"8 Magnolia Pl # 8Bronx, NY 10465",MANHATTAN,40.8131429,-73.808397,10465
Century 21 Dawns Gold,Multi-family home,699999,6,2,2184,Bronx,"1839 Andrews AveBronx, NY 10453",MANHATTAN,40.8524948,-73.9151397,10453
Corcoran Bedford Stuyvesant,Condo,289000,1,1,666,Brooklyn,"1065 Vermont St Apt 4GBrooklyn, NY 11207",BROOKLYN,40.6541622,-73.8846778,11207
COMPASS,Condo,699000,1,1,616,Brooklyn,"435 Tompkins Ave Unit 305Brooklyn, NY 11216",BROOKLYN,40.6826476,-73.9434923,11216
Century 21 Realty First,Land,5800,3,2,2184,Brooklyn,"4515 Avenue N Lot 5Brooklyn, NY 11234",BROOKLYN,40.618915,-73.931211,11234
Liberty Chateau Realty Inc,Foreclosure,479000,6,2,3100,Staten Island,"16 Renfrew PlStaten Island, NY 10303",MANHATTAN,40.6268305,-74.1471405,10303
COMPASS,Condo,1355000,2,2,1002,Brooklyn,"435 Tompkins Ave Unit 703Brooklyn, NY 11216",BROOKLYN,40.6826476,-73.9434923,11216
COMPASS,Condo,1225000,2,2,882,Brooklyn,"435 Tompkins Ave Unit 602Brooklyn, NY 11216",BROOKLYN,40.6826476,-73.9434923,11216
"Island Advantage Rlty, Llc",Foreclosure,9999000,4,6,4531,New York,"960 Park Ave Units 3W & 4CNew York, NY 10028",MANHATTAN,40.7779497,-73.959448,10028
"Bizzarro Agency, LLC",Co-op,105000,3,1,656,Bronx,"2191 Bolton St Apt 5EBronx, NY 10462",BRONX,40.8560699,-73.8688751,10462
Keller Williams Realty NYC Grp,Multi-family home,799000,5,3,2400,Bronx,"232 Throggs Neck BlvdBronx, NY 10465",MANHATTAN,40.8181836,-73.812739,10465
NY Home Ventures,Co-op,202000,2,1,1453,Bayside,"18-70 211 St Unit 2ABayside, NY 11360",QUEENS,40.7802813,-73.7818912,11360
Coldwell Banker Advantage,Contingent,720000,3,2,1430,Staten Island,"190 Chestnut AveStaten Island, NY 10305",MANHATTAN,40.6149561,-74.0745548,10305
Apollo Point Realty LLC,House,600000,5,2,2184,Kensington,"392 E 7th StKensington, NY 11218",MANHATTAN,40.6422956,-73.972787,11218
Douglas Elliman,Co-op,599000,3,1,1200,Brooklyn,"7901 4th Ave Apt F7Brooklyn, NY 11209",BROOKLYN,40.6279352,-74.0260154,11209
Berkshire Hathaway HomeServices Cangiano Estates,Condo,235000,2,1,860,Staten Island,"162 Arlo Rd Unit AStaten Island, NY 10301",STATEN_ISLAND,40.6192765,-74.09515,10301
Douglas Elliman,Co-op,319000,3,1,960,Little Neck,"58-42 251st St Unit 190Little Neck, NY 11362",MANHATTAN,40.7598591,-73.7290086,11362
Keller Williams Rlty Landmark,Multi-family home,950000,12,6,2184,Ridgewood,"18-29 George StRidgewood, NY 11385",MANHATTAN,40.7000145,-73.9010076,11385
Carollo Real Estate Inc,Multi-family home,1088888,4,2,2184,Bayside,"15-03 201st StBayside, NY 11360",MANHATTAN,40.7860789,-73.7928524,11360
Better Homes and Gardens Real Estate Safari Realty,House,1250000,4,4,3300,Staten Island,"24 Gianna CtStaten Island, NY 10306",MANHATTAN,40.5675492,-74.140764,10306
J Shayovitz Real Estate Corp,Land,650000,3,2,2184,Brooklyn,"2998 Fulton StBrooklyn, NY 11208",MANHATTAN,40.6799197,-73.8839962,11208
Claire Properties,House,774888,3,2,960,Staten Island,"417 Genesee AveStaten Island, NY 10312",MANHATTAN,40.5525576,-74.1709014,10312
"Robert E. Hill, Inc.",Co-op,105509,1,1,650,Bronx,"60 Knolls Cres Apt 8FBronx, NY 10463",BRONX,40.879078,-73.9175196,10463
Douglas Elliman,Multi-family home,995000,5,2,2184,Brooklyn,"544 Madison StBrooklyn, NY 11221",MANHATTAN,40.6862289,-73.9364224,11221
Douglas Elliman,Multi-family home,995000,5,2,2184,Brooklyn,"544 Madison StBrooklyn, NY 11221",MANHATTAN,40.6862289,-73.9364224,11221
CENTURY 21 Kafcos Realty,House,769000,4,2,1728,Bronx,"4322 E Tremont AveBronx, NY 10465",MANHATTAN,40.8152029,-73.8154969,10465
Ooakb&F Inc,Co-op,395995,2,1,1100,Bronx,"5601 Riverdale Ave Apt 2BBronx, NY 10471",BRONX,40.9048823,-73.9051113,10471
Peter Ashe Real Estate,For sale,975000,1,2,900,New York,"235 E 55th St Apt 45BNew York, NY 10022",MANHATTAN,40.7585686,-73.9669708,10022
Morris Park Realty Group,House,499999,2,1,1744,Bronx,"616 City Island AveBronx, NY 10464",MANHATTAN,40.8549429,-73.7908303,10464
Douglas Elliman,Co-op,1649000,2,2,2184,New York,"165 W End Ave Apt 7NNew York, NY 10023",MANHATTAN,40.777244,-73.9868738,10023
EXP Realty,Co-op,365000,2,1,2184,Kew Gardens,"83-40 Austin St Unit 3EKew Gardens, NY 11415",QUEENS,40.7083799,-73.8290102,11415
Corcoran SoHo,Pending,748999,3,2,1620,Staten Island,"122 North DrStaten Island, NY 10305",MANHATTAN,40.606691,-74.0724094,10305
Keller Williams Legendary,House,635000,3,2,2184,Saint Albans,"118-14 201st PlSaint Albans, NY 11412",MANHATTAN,40.6933533,-73.7503369,11412
Corcoran SoHo,Co-op,149000,3,1,400,New York,"87 Saint Marks Pl Apt 4CNew York, NY 10009",MANHATTAN,40.7276196,-73.9848906,10009
Capri Jet Realty Corp,House,1099000,5,2,1760,Howard Beach,"84-11 165th AveHoward Beach, NY 11414",MANHATTAN,40.6481943,-73.8452374,11414
Prereal Prendamano Real Estate,Land,3950000,3,2,2184,Staten Island,"750 Barclay AveStaten Island, NY 10312",MANHATTAN,40.525422,-74.166603,10312
Prestige Homes Ny Inc,Multi-family home,1529999,6,5,2400,South Ozone Park,"116-25 134th StSouth Ozone Park, NY 11420",MANHATTAN,40.6780476,-73.8056181,11420
Gateway Arms Realty Corp.,House,675000,3,1,1404,Staten Island,"44 Hunter PlStaten Island, NY 10301",MANHATTAN,40.6333513,-74.1021333,10301
"Century 21 Amiable Realty Group II, Inc.",House,2650000,6,6,2184,Howard Beach,"87-07 158th AveHoward Beach, NY 11414",MANHATTAN,40.660323,-73.8455929,11414
Sowae Corp,House,420000,3,1,2184,Ozone Park,"90-07 107th AveOzone Park, NY 11417",MANHATTAN,40.6784764,-73.8476859,11417
PAULEMA REALTY GROUP INC,Land,2999950,3,2,2184,Canarsie,"9115-9119 Bedell LnCanarsie, NY 11236",MANHATTAN,40.6444117,-73.9100389,11236
Liberty Chateau Realty Inc,Townhouse,559900,3,2,980,Staten Island,"18 Navigator CtStaten Island, NY 10309",MANHATTAN,40.5132339,-74.1959753,10309
Coldwell Banker American Homes,House,549000,3,1,2184,South Ozone Park,"122-04 115th AveSouth Ozone Park, NY 11420",MANHATTAN,40.6776809,-73.8166457,11420
E House Realty & Mgt. Inc.,Land,999000,3,2,950,Flushing,"13617 Carlton PlFlushing, NY 11354",MANHATTAN,40.7644631,-73.8297531,11354
Countrywide Real Estate Inc,Land,289000,3,2,2184,Bronx,"633 Mead StBronx, NY 10460",MANHATTAN,40.842629,-73.8665973,10460
C&R Real Estate Group NY LLC,Land,790000,3,2,2184,College Point,"1815 College Point BlvdCollege Point, NY 11356",MANHATTAN,40.7827104,-73.8457691,11356
Brooklyn Bound Realty Corp,House,2295000,7,4,3632,New York,"235 W 138th StNew York, NY 10030",MANHATTAN,40.8180374,-73.9436858,10030
NextHome Prestige,House,1150000,3,4,3000,Staten Island,"335 Preston AveStaten Island, NY 10312",MANHATTAN,40.5343966,-74.1582874,10312
COMPASS,Townhouse,13995000,7,2,9026,Brooklyn,"18 Prospect Park WBrooklyn, NY 11215",MANHATTAN,40.6712528,-73.9716506,11215
"Landair Property Advisors, LLC",Land,6100000,3,2,2184,Brooklyn,"1518 Pitkin AveBrooklyn, NY 11212",MANHATTAN,40.6685186,-73.9175924,11212
NEW PROSPECTIVE REALTY INC,Land,350000,3,2,2184,Brooklyn,"2532 Atlantic AveBrooklyn, NY 11207",MANHATTAN,40.6753179,-73.9008593,11207
TREBACH REALTY INC,Land,450000,3,2,2184,Bronx,"9 Alderbrook RdBronx, NY 10471",MANHATTAN,40.89582,-73.9110766,10471
Lions Guard Brokerage LLC,Land,2999999,3,2,2184,Jamaica,"153-10 89th AveJamaica, NY 11432",MANHATTAN,40.7051444,-73.8030054,11432
Real Estate Trade Co Inc,Land,2500000,3,2,2184,Brooklyn,"238 Ocean View AveBrooklyn, NY 11235",MANHATTAN,40.578639,-73.965449,11235
Real Estate Top Sales Llc,Land,350000,3,2,2184,Brooklyn,"8 Lake AveBrooklyn, NY 11235",MANHATTAN,40.5844107,-73.9380366,11235
Truhomes Realty Group,Land,150000,3,2,2184,Staten Island,"40 Cedarcliff RdStaten Island, NY 10301",MANHATTAN,40.6171535,-74.0890497,10301
ES Realty Eva Shammah LLC,Land,3600000,3,2,2184,Brooklyn,"1348 E 7th StBrooklyn, NY 11230",MANHATTAN,40.6179636,-73.9681702,11230
Truhomes Realty Group,Land,150000,3,2,2184,Staten Island,"48 Cedarcliff RdStaten Island, NY 10301",MANHATTAN,40.6170275,-74.0893192,10301
NoBroker,Co-op,235000,3,2,1400,Jamaica,"143-50 Hoover Ave Unit 307Jamaica, NY 11435",QUEENS,40.7142299,-73.8152,11435
Oxford Property Group,Land,2000000,3,2,2184,Bronx,"2090 Arthur AveBronx, NY 10457",MANHATTAN,40.8492324,-73.8914043,10457
"Landair Property Advisors, LLC",Land,2200000,3,2,2184,Forest Hills,"75-43 113th StForest Hills, NY 11375",MANHATTAN,40.7185125,-73.834819,11375
Modern Spaces Love Your Place,Land,650000,3,2,2184,Long Island City,"31-42 41st StLong Island City, NY 11103",MANHATTAN,40.759972,-73.9173868,11103
Neman Yoska,Land,149000,3,2,2184,Staten Island,"644 Jefferson AveStaten Island, NY 10306",MANHATTAN,40.5742632,-74.086609,10306
Sowae Corp,House,215000,4,2,2000,Brooklyn,"408 Van Siclen AveBrooklyn, NY 11207",MANHATTAN,40.6694978,-73.8897534,11207
5 Boro Realty Corp,Land,799999,3,2,2184,Bedford Stuyvesant,"1905 Fulton StBedford Stuyvesant, NY 11233",MANHATTAN,40.6789582,-73.9203193,11233
BKNY TROY AVENUE REALTY CORP,House,299000,5,2,2184,Far Rockaway,"219 Beach 44 StFar Rockaway, NY 11691",MANHATTAN,40.593404,-73.775651,11691
Soverign Homes Realty Inc,Land,265000,3,2,2184,Brooklyn,"1698 E New York AveBrooklyn, NY 11212",MANHATTAN,40.6743408,-73.9056237,11212
JL Capital Real Estate Corp,Land,795000,3,2,2184,Bronx,"1761 Topping AveBronx, NY 10457",MANHATTAN,40.8457524,-73.9059682,10457
JL Capital Real Estate Corp,Land,1245000,3,2,2184,Bronx,"5437 Fieldston RdBronx, NY 10471",MANHATTAN,40.902657,-73.901871,10471
Crifasi Real Estate Inc,Land,549000,3,2,2184,Brooklyn,"1385 Dekalb AveBrooklyn, NY 11221",MANHATTAN,40.699454,-73.924234,11221
Douglas Elliman,Condo,7495000,4,4,2888,New York,"378 W End Ave Apt 4ANew York, NY 10024",MANHATTAN,40.7833319,-73.9815796,10024
Keller Williams NYC,Townhouse,2850000,4,4,4080,Queens,"30-53 35th StQueens, NY 11103",MANHATTAN,40.7639241,-73.9190583,11103
Berkshire Hathaway HomeServices New York Properties,Co-op,215000,2,2,747,Bronx,"127C Edgewater Park Unit CBronx, NY 10465",MANHATTAN,40.8233271,-73.8110122,10465
CENTURY 21 Achievers,Land,299000,3,2,2184,Brooklyn,"621 E 87th StBrooklyn, NY 11236",MANHATTAN,40.6415965,-73.9105958,11236
Sowae Corp,House,275000,2,1,1104,Bronx,"3009 Coddington AveBronx, NY 10461",MANHATTAN,40.8409818,-73.8292936,10461
Momentum Real Estate LLC,Multi-family home,898000,6,3,2100,Staten Island,"15 Spratt AveStaten Island, NY 10306",MANHATTAN,40.5586967,-74.1351001,10306
Signature Premier Properties,Co-op,275000,2,1,900,Bronx,"1910 Pelham Pkwy S Apt 2ABronx, NY 10461",BRONX,40.8554764,-73.8287193,10461
Drop Key Realty LLC,House,599000,4,2,1682,South Ozone Park,"114-36 Sutter AveSouth Ozone Park, NY 11420",MANHATTAN,40.6747343,-73.8239749,11420
Gateway Arms Realty Corp.,Condo,189000,1,1,730,Staten Island,"20 Cliff St Apt 5BStaten Island, NY 10305",STATEN_ISLAND,40.6109595,-74.060351,10305
Blooming Realty,Multi-family home,678990,3,3,1575,Staten Island,"155 Wellbrook AveStaten Island, NY 10314",MANHATTAN,40.6012318,-74.1300175,10314
SUPERIOR REALTY SERVICE,House,800000,3,2,1824,Brooklyn,"2660 Mill AveBrooklyn, NY 11234",MANHATTAN,40.608799,-73.9128174,11234
Taranto Realty,Condo,549000,3,2,1092,Staten Island,"4 Jamie CtStaten Island, NY 10314",MANHATTAN,40.6221107,-74.1499982,10314
Compass Realty Central Inc.,House,849000,3,2,2000,Staten Island,"329 Wainwright AveStaten Island, NY 10312",MANHATTAN,40.5528489,-74.1699382,10312
GLASHEN REALTY GROUP INC,Pending,675000,3,2,2184,Brooklyn,"558 E 34th StBrooklyn, NY 11203",MANHATTAN,40.6428139,-73.9451438,11203
Sowae Corp,House,130000,3,2,664,Staten Island,"263 South AveStaten Island, NY 10303",MANHATTAN,40.6330671,-74.1659477,10303
Eden7 Realty Inc,House,759999,4,2,2184,Jamaica,"91-18 173rd StJamaica, NY 11432",MANHATTAN,40.7083753,-73.787158,11432
Martino Realty Group,Contingent,489000,2,1,978,Staten Island,"615 Correll AveStaten Island, NY 10309",MANHATTAN,40.546573,-74.213449,10309
RE MAX Real Estate Professionals,Multi-family home,799900,5,2,1750,Brooklyn,"2339 Brigham StBrooklyn, NY 11229",MANHATTAN,40.5956263,-73.933927,11229
"Century 21 Amiable Realty Group II, Inc.",Co-op,295000,3,1,2184,Howard Beach,"155-23 79th St Unit 2Howard Beach, NY 11414",QUEENS,40.6633466,-73.8542803,11414
Berkshire Hathaway HomeServices New York Properties,Co-op,159000,2,1,1010,Bronx,"3531 Bronxwood Ave Apt StbBronx, NY 10469",MANHATTAN,40.8762047,-73.8603621,10469
Douglas Elliman,House,999500,3,2,1144,Whitestone,"157-23 16th RdWhitestone, NY 11357",MANHATTAN,40.784332,-73.8045713,11357
"Robert Defalco Realty, Inc.",Contingent,589000,3,2,2310,Staten Island,"68 Davis AveStaten Island, NY 10310",MANHATTAN,40.6426635,-74.1108512,10310
EXP REALTY,Condo,329000,2,1,850,Staten Island,"55 Austin Pl Apt 6ZStaten Island, NY 10304",MANHATTAN,40.6316141,-74.0858954,10304
"Compass Greater Ny, Llc",House,799000,3,2,1881,Brooklyn,"431 E 32nd StBrooklyn, NY 11226",MANHATTAN,40.6402886,-73.9463493,11226
"BEN BAY REALTY, CO.",House,1188000,4,2,1580,Brooklyn,"1268 76th StBrooklyn, NY 11228",MANHATTAN,40.6198659,-74.0087151,11228
Pantiga Group Inc.,House,729000,3,2,1400,Bronx,"1625 Lurting AveBronx, NY 10461",MANHATTAN,40.846624,-73.8520911,10461
Real Broker NY LLC,Contingent,614900,3,2,1495,Staten Island,"30 Cunard AveStaten Island, NY 10304",MANHATTAN,40.6142391,-74.0884134,10304
Keller Williams Realty NYC Grp,House,599000,4,2,1500,Bronx,"242 E 235th StBronx, NY 10470",MANHATTAN,40.8972473,-73.868898,10470
RE/MAX Team,Multi-family home,950000,6,2,2184,Corona,"31-15 102 StCorona, NY 11368",MANHATTAN,40.7608129,-73.8669195,11368
Corcoran Westside Columbus,Townhouse,11000000,5,2,2184,Queens,"137 Beach 140th StQueens, NY 11694",MANHATTAN,40.5704687,-73.8558742,11694
Ashford Homes,Land,348000,3,2,2184,Staten Island,"952 Olympia BlvdStaten Island, NY 10306",MANHATTAN,40.575138,-74.090531,10306
Douglas Elliman,Condo,965000,3,1,540,Brooklyn,"9 Dekalb Ave Unit 54EBrooklyn, NY 11201",BROOKLYN,40.6903851,-73.9825343,11201
American Homes Group,Multi-family home,1095000,4,4,2280,Staten Island,"89 Escanaba AveStaten Island, NY 10308",MANHATTAN,40.5505648,-74.1599018,10308
Serhant,Condo,2295000,2,2,1242,New York,"219 Hudson St Apt 4ANew York, NY 10013",MANHATTAN,40.7241501,-74.0080814,10013
Corcoran Chelsea/Flatiron,Pending,13500000,5,7,2184,New York,"112 Waverly PlNew York, NY 10011",MANHATTAN,40.7323524,-73.9993358,10011
Morris Park Realty Group,Co-op,49500,3,2,800,Bronx,"150 City Island Ave Unit E3Bronx, NY 10464",BRONX,40.8432844,-73.7846028,10464
Unlimited Homes Realty Inc,House,460000,3,3,2256,Brooklyn,"26 Durland PlBrooklyn, NY 11236",MANHATTAN,40.641648,-73.9064568,11236
Stuyvesant Heights Realty Corp,Multi-family home,825000,12,6,2184,Brooklyn,"344 Ashford StBrooklyn, NY 11207",MANHATTAN,40.6739463,-73.885344,11207
COMPASS,House,1230250,3,2,1590,Queens,"70-17 Nansen StQueens, NY 11375",MANHATTAN,40.7120962,-73.8518076,11375
Homelink Homes Llc,House,799999,3,2,1344,Brooklyn,"2047 E 38th StBrooklyn, NY 11234",MANHATTAN,40.6099147,-73.9287144,11234
Keller Williams Realty Liberty,Co-op,259500,2,1,2184,Kew Gardens,"123-35 82nd Rd Unit 5HKew Gardens, NY 11415",QUEENS,40.7121373,-73.8277084,11415
IHome Realty Group LLC,Multi-family home,1300000,15,6,4920,Brooklyn,"3015 Avenue DBrooklyn, NY 11226",MANHATTAN,40.6411388,-73.9478417,11226
Integrity Core Realty,Condo,749000,2,2,1300,Bayside,"13-22 208th Pl Unit 1605Bayside, NY 11360",QUEENS,40.7874921,-73.7858086,11360
American Homes Group,House,265000,2,1,660,Staten Island,"19 Vera StStaten Island, NY 10305",MANHATTAN,40.5849224,-74.0968781,10305
RE MAX Elite,House,575000,2,1,900,Rockaway Park,"190 Beach 109th StRockaway Park, NY 11694",MANHATTAN,40.5809134,-73.8302012,11694
Homesmart Homes and Estates,Multi-family home,849000,4,2,2180,Bronx,"2033 Hobart AveBronx, NY 10461",MANHATTAN,40.8528127,-73.8312235,10461
NoBroker,House,875000,2,2,1214,Little Neck,"244-89 61st AveLittle Neck, NY 11362",MANHATTAN,40.7565472,-73.7339718,11362
"Neuhaus Realty, Inc.",House,599999,3,2,1360,Staten Island,"68 Watchogue RdStaten Island, NY 10314",MANHATTAN,40.613911,-74.133028,10314
Real Broker NY LLC,Multi-family home,1150000,5,3,2184,Howard Beach,"162-14 97th StHoward Beach, NY 11414",MANHATTAN,40.6542535,-73.8350556,11414
RE MAX Edge,Pending,1188000,4,2,3840,Staten Island,"139 Atlantic AveStaten Island, NY 10304",MANHATTAN,40.5929709,-74.0937822,10304
"Tom Marco Real Estate, Inc.",Foreclosure,579900,3,2,2640,Staten Island,"241 Westervelt AveStaten Island, NY 10301",MANHATTAN,40.6422293,-74.0830445,10301
Douglas Elliman,Multi-family home,1295000,4,3,2440,Whitestone,"16-38 157th StWhitestone, NY 11357",MANHATTAN,40.78403,-73.80579,11357
Sowae Corp,House,250000,3,1,1376,Brooklyn,"4413 Avenue MBrooklyn, NY 11234",MANHATTAN,40.6212165,-73.9324344,11234
TREBACH REALTY INC,Land,1395000,3,2,2184,Bronx,"5239 Independence AveBronx, NY 10471",MANHATTAN,40.9007702,-73.9110778,10471
Daniel Gale Sotheby's International Realty,Townhouse,1648000,3,4,1751,Queens,"7 Middlemay CirQueens, NY 11375",MANHATTAN,40.7179519,-73.8427778,11375
Voro Llc,House,1675000,4,5,2184,Jamaica,"85-33 Radnor StJamaica, NY 11432",MANHATTAN,40.7169141,-73.7831551,11432
EXIT REALTY PREMIER,House,950000,3,2,1748,Rego Park,"66-23 Alderton StRego Park, NY 11374",MANHATTAN,40.7188985,-73.8587988,11374
COMPASS,Co-op,449500,1,1,2184,Manhattan,"180 Thompson St Apt LdManhattan, NY 10012",MANHATTAN,40.7278952,-73.9998294,10012
All American Realty Management,Pending,184888,3,1,500,Queens,"2902745 35 98th St Unit 15AQueens, NY 11374",QUEENS,40.7343409,-73.859014,11374
Spire Group Inc.,Condo,399000,3,1,500,New York,"664 W 161st St Apt 1FNew York, NY 10032",MANHATTAN,40.8374911,-73.9456039,10032
Llk Homes Realty Inc.,Co-op,209000,1,1,1078,Bronx,"4410 Cayuga Ave Unit B3Bronx, NY 10471",BRONX,40.8915963,-73.8989828,10471
COMPASS,Co-op,280000,3,2,1100,Bronx,"1506 Overing St Unit STR3Bronx, NY 10461",BRONX,40.8409736,-73.8456248,10461
EXP Realty,House,625000,3,2,2184,Ozone Park,"132-11 Centreville StOzone Park, NY 11417",MANHATTAN,40.6765364,-73.8351774,11417
Sotheby's International Realty,Co-op,275000,3,1,2184,New York,"419 E 87th St Apt 3ANew York, NY 10128",MANHATTAN,40.7772579,-73.9476695,10128
"F.G. VOLPE REALTY ""SERVICING STATEN ISLAND""",Multi-family home,924800,4,3,2049,Staten Island,"315 Main StStaten Island, NY 10307",MANHATTAN,40.5075446,-74.2461088,10307
Nexthome All Island,House,1300000,6,4,2112,Bayside,"222-44 41st RdBayside, NY 11361",MANHATTAN,40.7645123,-73.7595302,11361
"Neuhaus Realty, Inc.",Multi-family home,995000,5,2,2288,Staten Island,"65 Rensselaer Ave Unit AStaten Island, NY 10312",MANHATTAN,40.5501403,-74.1810379,10312
Douglas Elliman,Condo,16500000,5,4,4105,New York,"2150 BroadwayNew York, NY 10023",MANHATTAN,40.7814599,-73.9806864,10023
Homefinders of SI Inc.,Townhouse,695000,3,2,1793,Staten Island,"370 Windham LoopStaten Island, NY 10314",MANHATTAN,40.5763909,-74.1631382,10314
Douglas Elliman,Condo,16500000,5,4,4105,New York,"2150 BroadwayNew York, NY 10023",MANHATTAN,40.7814599,-73.9806864,10023
Homefinders of SI Inc.,Townhouse,695000,3,2,1793,Staten Island,"370 Windham LoopStaten Island, NY 10314",MANHATTAN,40.5763909,-74.1631382,10314
Trademarko Realty Inc,Multi-family home,998000,5,3,1738,Richmond Hill,"95-15 108th StRichmond Hill, NY 11419",MANHATTAN,40.6898026,-73.836542,11419
"Tom Crimmins Realty, Ltd.",Multi-family home,899000,7,3,1980,Staten Island,"1009 Forest AveStaten Island, NY 10310",MANHATTAN,40.6275175,-74.1233766,10310
Akcess24homes Inc,Multi-family home,849000,6,5,2184,South Ozone Park,"137-06 132nd AveSouth Ozone Park, NY 11436",MANHATTAN,40.669692,-73.8003434,11436
COMPASS,Co-op,235000,3,1,2184,Queens,"133 Beach 120th St Apt 2EQueens, NY 11694",QUEENS,40.576751,-73.8398387,11694
Coldwell Banker American Homes,House,399999,2,1,2184,Rockaway Park,"320C Beach 101st StRockaway Park, NY 11694",MANHATTAN,40.5853532,-73.8227113,11694
Sowae Corp,House,520000,4,2,1701,Brooklyn,"860 Herkimer StBrooklyn, NY 11233",MANHATTAN,40.6781418,-73.9250576,11233
Realty Executives Powerhouse,Condo,485000,3,2,2184,Brooklyn,"901 E 106th St Unit 1ABrooklyn, NY 11236",BROOKLYN,40.6479766,-73.8936697,11236
Madison Estates Sotheby's International Realty,Co-op,215000,3,1,1100,Brooklyn,"1075 Ocean Pkwy Apt 1CBrooklyn, NY 11230",BROOKLYN,40.622324,-73.9695073,11230
Coldwell Banker Advantage,Multi-family home,1288000,6,5,2640,Staten Island,"1010 Huguenot AveStaten Island, NY 10312",MANHATTAN,40.5294592,-74.1903024,10312
GANG JASON A,Co-op,270000,2,2,900,Jackson Heights,"33-05 92nd St Unit 1CJackson Heights, NY 11372",QUEENS,40.7562792,-73.8758052,11372
Douglas Elliman,Co-op,375000,2,2,1200,Bronx,"3635 Johnson Ave Apt 3GBronx, NY 10463",BRONX,40.8876529,-73.909649,10463
Corcoran SoHo,Co-op,565000,1,1,2184,Brooklyn,"78 8th Ave Apt 2KBrooklyn, NY 11215",BROOKLYN,40.6733809,-73.9732475,11215
B Square Realty,Multi-family home,849000,4,3,2184,Brooklyn,"65 Grant AveBrooklyn, NY 11208",MANHATTAN,40.6895034,-73.8684501,11208
Exit Alliance Realty,Co-op,199000,2,1,2184,Jamaica,"8900 170th St Apt 7DJamaica, NY 11432",QUEENS,40.7092156,-73.7912209,11432
Corcoran Williamsburg Bedford,House,5500000,8,6,9000,Bronx,"5041 Goodridge AveBronx, NY 10471",MANHATTAN,40.8985084,-73.902753,10471
B Square Realty,House,899000,4,2,2184,Bayside,"36-34 Clearview ExpyBayside, NY 11361",MANHATTAN,40.7646585,-73.780903,11361
TALK OF THE TOWN REALTY C,House,699000,3,2,2350,Brooklyn,"2138 Coleman StBrooklyn, NY 11234",MANHATTAN,40.6095856,-73.9253159,11234
The Agency,Condo,27750000,7,8,8139,New York,"551 W 21st St Unit 15ABNew York, NY 10011",MANHATTAN,40.7474926,-74.0072666,10011
Keller Williams Realty Elite,House,739000,3,1,1148,Bellerose,"248-08 82nd AveBellerose, NY 11426",MANHATTAN,40.7386816,-73.7202723,11426
Keller Williams Realty Group,Multi-family home,425000,3,2,1700,Bronx,"747 E 217th StBronx, NY 10467",MANHATTAN,40.8817944,-73.8617772,10467
RE MAX Real Estate Professionals,Co-op,300000,2,1,900,Staten Island,"350 Richmond Ter Apt 3CStaten Island, NY 10301",STATEN_ISLAND,40.6479387,-74.0852701,10301
Re/Max Elite,House,569000,3,3,1780,Bronx,"267 Robinson AveBronx, NY 10465",MANHATTAN,40.8147819,-73.8265252,10465
Baring Homes Corp,House,789000,5,3,1273,Queens Village,"223-30 107th AveQueens Village, NY 11429",MANHATTAN,40.7084501,-73.7316272,11429
COMPASS,Condo,10500000,3,3,2753,Manhattan,"1 Wall St Apt 4101Manhattan, NY 10005",MANHATTAN,40.7075029,-74.011653,10005
Corcoran Long Island City,Co-op,350000,2,1,825,Brooklyn,"274 S 2nd St Apt 30Brooklyn, NY 11211",BROOKLYN,40.711175,-73.957086,11211
Corcoran Brooklyn Heights,Pending,5895000,8,5,6312,Brooklyn,"219 Frost StBrooklyn, NY 11211",MANHATTAN,40.7185648,-73.9422548,11211
Coldwell Banker Reliable Real Estate,Multi-family home,1250000,7,4,2184,Brooklyn,"346 50th StBrooklyn, NY 11220",MANHATTAN,40.6468782,-74.0136737,11220
Douglas Elliman,Townhouse,1499999,4,2,2264,Brooklyn,"3623 Avenue TBrooklyn, NY 11234",MANHATTAN,40.6087059,-73.9290715,11234
Brownstone Real Estate LLC,Multi-family home,1488000,6,2,2184,Brooklyn,"7302 11th AveBrooklyn, NY 11228",MANHATTAN,40.624169,-74.010925,11228
Douglas Elliman,Land,285000,3,2,2184,Far Rockaway,"12 Point Breeze AveFar Rockaway, NY 11697",MANHATTAN,40.5607533,-73.9207539,11697
Sell Your Home NY Inc,Multi-family home,699000,3,3,2184,South Ozone Park,"114-48 127th StSouth Ozone Park, NY 11420",MANHATTAN,40.6793322,-73.8130504,11420
Liberty Chateau Realty Inc,House,924900,3,2,1404,Brooklyn,"1559 W 4th StBrooklyn, NY 11204",MANHATTAN,40.6094348,-73.9777343,11204
Mach Realty Llc,Foreclosure,560000,4,2,2318,Bronx,"456 E 134th StBronx, NY 10454",MANHATTAN,40.8056419,-73.9229736,10454
Century 21 Realty First,Multi-family home,1998000,12,8,5100,Brooklyn,"4015 Atlantic AveBrooklyn, NY 11224",MANHATTAN,40.5745179,-74.0068304,11224
KELLER WILLIAMS REALTY LANDMARK II,Pending,309000,3,2,2184,Howard Beach,"151-40 88 St Unit 5JHoward Beach, NY 11414",QUEENS,40.6674344,-73.8479327,11414
Nest Seekers Westchester Llc,Multi-family home,925000,4,2,2160,Bronx,"2423 Woodhull AveBronx, NY 10469",MANHATTAN,40.8616602,-73.8421016,10469
Landmark International R E Llc,House,999000,4,2,2184,Fresh Meadows,"65-07 181st StFresh Meadows, NY 11365",MANHATTAN,40.7365353,-73.7913358,11365
B Square Realty,Condo,699000,2,2,833,Bayside,"214-10 15 Ave Unit 4BBayside, NY 11360",QUEENS,40.7873388,-73.7794685,11360
Apple Realty Group Corp,Co-op,278500,2,1,2184,Rego Park,"65-38 Booth St Unit 6ERego Park, NY 11374",QUEENS,40.7267837,-73.8587799,11374
COMPASS,Co-op,738000,3,2,2184,Manhattan,"303 E 57th St Apt 39AManhattan, NY 10022",MANHATTAN,40.7595774,-73.964779,10022
COMPASS,House,900000,4,4,2700,Queens,"12-14 W 5th RdQueens, NY 11693",MANHATTAN,40.6110299,-73.8195062,11693
Re/Max Elite,Co-op,369000,1,1,1470,Rockaway Park,"12310 Ocean Promenade Apt 7HRockaway Park, NY 11694",QUEENS,40.5756358,-73.8423199,11694
Premium Choice Realty Corp,House,609000,3,2,1620,Bronx,"4384 Locust Point DrBronx, NY 10465",MANHATTAN,40.8165837,-73.8006996,10465
Keller Williams Rlty Landmark,Condo,758000,3,2,1278,College Point,"3-27 Endeavor Pl Unit CCollege Point, NY 11356",MANHATTAN,40.7928823,-73.8449212,11356
Gillani Homes Inc.,Condo,728000,3,2,1890,Staten Island,"166 Rolling Hill GrnStaten Island, NY 10312",MANHATTAN,40.55065,-74.193355,10312
Liberty Chateau Realty Inc,House,314900,3,3,1200,Brooklyn,"595 Glenmore AveBrooklyn, NY 11207",MANHATTAN,40.6744942,-73.8883757,11207
Julia Shildkret Real Estate,House,2848000,6,2,4443,Jamaica,"85-16 Chevy Chase StJamaica, NY 11432",MANHATTAN,40.7202893,-73.7786927,11432
Tscherne Realty Inc,House,1298000,3,2,2046,Middle Village,"62-15 82nd PlMiddle Village, NY 11379",MANHATTAN,40.7239521,-73.8747783,11379
Magic Of Great Neck Realty Inc,Co-op,1095000,4,4,2500,Floral Park,"27110 Grand Central Pkwy Ph FFloral Park, NY 11005",MANHATTAN,40.7564761,-73.7212008,11005
Liberty Chateau Realty Inc,Condo,434900,3,2,1286,Staten Island,"6 Greentree Ln Unit 6Staten Island, NY 10314",STATEN_ISLAND,40.6085756,-74.1610387,10314
Douglas Elliman,Co-op,375000,2,2,1350,Bronx,"4601 Henry Hudson Pkwy W Apt A8Bronx, NY 10471",BRONX,40.8938465,-73.9091368,10471
Link Ny Realty,Multi-family home,1375000,14,8,6000,Bronx,"1826 Radcliff AveBronx, NY 10462",MANHATTAN,40.8485623,-73.8574586,10462
OneKey MLS LLC,Townhouse,4680000,3,4,2400,New York,"128 E 38th StNew York, NY 10016",MANHATTAN,40.7489947,-73.9783819,10016
O Kane Realty,Co-op,549000,2,2,1200,Forest Hills,"69-10 108 St Unit 6OForest Hills, NY 11375",QUEENS,40.724514,-73.8458441,11375
Northshore Properties Realty,House,549000,3,1,1400,Staten Island,"225 Bement AveStaten Island, NY 10310",MANHATTAN,40.6368544,-74.1124571,10310
Keller Williams Realty Staten Island,House,950000,3,2,1520,Queens,"67-44 Kessel StQueens, NY 11375",MANHATTAN,40.7157274,-73.8563447,11375
LoHo Realty Inc,Condo,388000,3,1,2184,New York City,"157 Broome St Apt 3ENew York City, NY 10002",MANHATTAN,40.7162732,-73.9849864,10002
"Sotheby's International Realty, Inc.",Townhouse,5600000,6,6,4917,New York,"111 E 19th StNew York, NY 10003",MANHATTAN,40.7375348,-73.9872447,10003
Strictly Realty,Multi-family home,1600000,8,6,3472,Rego Park,"85-29 66th AveRego Park, NY 11374",MANHATTAN,40.7189686,-73.8626041,11374
Sotheby's International Realty,Townhouse,6995000,5,2,3912,New York,"239 E 78th StNew York, NY 10075",MANHATTAN,40.7732125,-73.9564279,10075
Douglas Elliman,Multi-family home,1399000,6,2,2184,Middle Village,"61-29 75th StMiddle Village, NY 11379",MANHATTAN,40.721725,-73.8839773,11379
Sowae Corp,House,399000,3,2,1350,South Ozone Park,"117-02 111th AveSouth Ozone Park, NY 11420",MANHATTAN,40.6798316,-73.82277,11420
Corcoran Brooklyn Heights,Pending,529900,1,1,630,Brooklyn,"175 Adams St Apt 10EBrooklyn, NY 11201",BROOKLYN,40.6985714,-73.9881911,11201
Prime Realty,Pending,999000,5,2,2184,Maspeth,"59-14 69th StMaspeth, NY 11378",MANHATTAN,40.7227469,-73.8941061,11378
Winzone Realty Inc,Condo,575000,2,2,2184,Elmhurst,"81-15 Queens Blvd Unit 3CElmhurst, NY 11373",QUEENS,40.7373082,-73.878333,11373
Keller Williams Points North,Pending,659900,3,4,2184,Bayside,"216-10 17th Ave Unit TH53Bayside, NY 11360",QUEENS,40.7855084,-73.7762312,11360
BHHS New York Properties,Townhouse,2200000,6,3,2385,Brooklyn,"484 A 7th AveBrooklyn, NY 11215",MANHATTAN,40.6621056,-73.9857576,11215
Project Queens LLC,Multi-family home,898888,5,2,1550,Bellerose,"24907 88th RdBellerose, NY 11426",MANHATTAN,40.7282381,-73.7158123,11426
"Nest Seekers International, Midtown",House,1250000,5,4,3427,Staten Island,"148 Claypit RdStaten Island, NY 10309",MANHATTAN,40.5395581,-74.2229079,10309
"Compass Greater New York, LLC",Multi-family home,1188000,3,2,2240,Brooklyn,"1861 82nd StBrooklyn, NY 11214",MANHATTAN,40.6085532,-73.998257,11214
Coldwell Banker Advantage,Multi-family home,869999,5,3,2080,Staten Island,"428 Bradley AveStaten Island, NY 10314",MANHATTAN,40.6005525,-74.1314512,10314
Top Nest Inc,Co-op,219000,3,1,1050,Brooklyn,"2229 Knapp St Apt 2ABrooklyn, NY 11229",BROOKLYN,40.5988908,-73.9334675,11229
Sowae Corp,House,210000,3,2,1840,Brooklyn,"653 Jerome StBrooklyn, NY 11207",MANHATTAN,40.664748,-73.884184,11207
Cross Country Realty,Multi-family home,799000,6,2,2184,Brooklyn,"737 Pine StBrooklyn, NY 11208",MANHATTAN,40.6672674,-73.8686224,11208
R Jaundoo Realty Llc,Co-op,298000,3,2,1100,Bronx,"1425 Thieriot Ave Apt 6LBronx, NY 10460",BRONX,40.8363242,-73.8654755,10460
Re/Max Edge,House,1248888,4,4,3500,Staten Island,"25 Tarring StStaten Island, NY 10306",MANHATTAN,40.5646314,-74.1243252,10306
Corcoran East Side,Pending,1075000,2,2,955,New York,"313 W 118th St Apt 3DNew York, NY 10026",MANHATTAN,40.8061576,-73.9550949,10026
Corcoran Park Slope,Pending,1695000,2,2,1572,Brooklyn,"633 Prospect Pl Apt 1Brooklyn, NY 11216",BROOKLYN,40.6750114,-73.9554645,11216
Brown Harris Stevens,Condo,3795000,3,2,1887,Brooklyn,"30 Main St Ph BBrooklyn, NY 11201",MANHATTAN,40.702988,-73.9907803,11201
Sold By Bart R E Partners Inc,Condo,550000,2,2,2184,Middle Village,"62-48 Mount Olivet Cres Unit 1BMiddle Village, NY 11379",QUEENS,40.7135475,-73.895855,11379
Sotheby's International Realty,Co-op,775000,3,1,2184,New York,"46 Commerce St # 5New York, NY 10014",MANHATTAN,40.7313539,-74.0050572,10014
Wonica REALTORS & Appraisers,Foreclosure,249900,2,2,800,Staten Island,"1100 Clove Rd Unit G0Staten Island, NY 10301",MANHATTAN,40.6189484,-74.1071576,10301
Keller Williams Realty Empire,House,650000,4,1,1152,Staten Island,"318 Arthur Kill RdStaten Island, NY 10308",MANHATTAN,40.5663057,-74.1529549,10308
Corcoran Brooklyn Heights,Co-op,410000,1,1,2184,Brooklyn,"8701 Shore Rd Apt 435Brooklyn, NY 11209",BROOKLYN,40.6249201,-74.0404698,11209
Momentum Real Estate Llc,Multi-family home,1650000,9,5,4320,Brooklyn,"2331 W 12th StBrooklyn, NY 11223",MANHATTAN,40.5906586,-73.9818321,11223
Brown Harris Stevens,Pending,1600000,2,2,1100,Manhattan,"159 W 24th St Apt 5BManhattan, NY 10011",MANHATTAN,40.7448219,-73.9944632,10011
Douglas Elliman,Co-op,325000,2,1,2184,Forest Hills,"67-12 Yellowstone Blvd Unit B1Forest Hills, NY 11375",QUEENS,40.7280894,-73.8494828,11375
Precious Properties Corp.,Contingent,275000,2,1,900,Staten Island,"177 3rd St Unit 1Staten Island, NY 10306",STATEN_ISLAND,40.5735927,-74.1200228,10306
Keller Williams Realty NYC Grp,House,700000,3,2,1620,Bronx,"3610 Corlear AveBronx, NY 10463",MANHATTAN,40.8844018,-73.9028342,10463
Chase Global Realty Corp,House,930000,3,2,2184,Woodside,"32-16 61st StWoodside, NY 11377",MANHATTAN,40.7555333,-73.9016851,11377
Today Realty Corp.,Condo,379000,1,2,704,Bronx,"190 Schofield St Apt 3IBronx, NY 10464",BRONX,40.845063,-73.783581,10464
"BEN BAY REALTY, CO.",House,1150000,3,2,1376,Brooklyn,"2234 62nd StBrooklyn, NY 11204",MANHATTAN,40.6149237,-73.9789281,11204
Mjr Real Estate Llc,Co-op,568888,3,2,1100,Rego Park,"98-05 63 Rd Unit 4ERego Park, NY 11374",MANHATTAN,40.7322223,-73.8588845,11374
Connie Profaci Realty,House,1200000,4,3,2052,Staten Island,"244 Four Corners RdStaten Island, NY 10304",MANHATTAN,40.59194,-74.1087406,10304
Wonica REALTORS & Appraisers,Foreclosure,899900,3,3,2550,Staten Island,"712 Katan AveStaten Island, NY 10312",MANHATTAN,40.5499354,-74.1709931,10312
COMPASS,Condo,799999,3,2,1200,Bayside,"1412 Bonnie Ln Apt 2Bayside, NY 11360",QUEENS,40.7859137,-73.7868778,11360
Sowae Corp,Multi-family home,300000,3,4,2184,Brooklyn,"348 Legion StBrooklyn, NY 11212",MANHATTAN,40.6601546,-73.9163716,11212
Island Advantage Realty LLC,Foreclosure,750000,4,3,3098,Staten Island,"3037 Richmond RdStaten Island, NY 10306",MANHATTAN,40.5758238,-74.1227343,10306
Prodigy Real Estate Inc.,House,669999,4,2,1196,Staten Island,"416 Colon AveStaten Island, NY 10308",MANHATTAN,40.5598117,-74.1585168,10308
RE MAX Elite,Contingent,575000,2,1,1200,Staten Island,"15 Portland PlStaten Island, NY 10301",MANHATTAN,40.6337278,-74.0936101,10301
NoBroker,Co-op,299000,3,1,2184,Brooklyn,"2212 Brigham St Apt 3CBrooklyn, NY 11229",BROOKLYN,40.5987787,-73.9350489,11229
American Homes Group,House,548800,3,4,1440,Staten Island,"89 Taft AveStaten Island, NY 10301",MANHATTAN,40.6409456,-74.0859933,10301
Peter Ashe Real Estate,Townhouse,28500000,7,9,12300,New York,"14 E 69th St Unit TownhouseNew York, NY 10021",MANHATTAN,40.7699341,-73.9675072,10021
Realty Executives Today,Co-op,259000,2,1,2184,Kew Gardens,"84-25 118 St Unit 1BKew Gardens, NY 11418",QUEENS,40.7041499,-73.83371,11418
Sbny Re,Co-op,425000,2,1,2184,Forest Hills,"70-25 Yellowstone Blvd Unit 14XForest Hills, NY 11375",QUEENS,40.7226099,-73.8495,11375
NEXTHOME PLATINUM PROPERTIES,House,950000,4,2,2200,Brooklyn,"68 Schenck AveBrooklyn, NY 11207",MANHATTAN,40.6795412,-73.8904428,11207
Adcny Realty Corp,Co-op,185000,2,1,600,New York,"526 W 158th St Apt 64New York, NY 10032",MANHATTAN,40.833945,-73.9432359,10032
Century Homes Realty Group LLC,House,1688888,4,3,2364,Little Neck,"373 Manor RdLittle Neck, NY 11363",MANHATTAN,40.7773521,-73.7464296,11363
Realty Executives Today,Co-op,259000,2,1,2184,Kew Gardens,"84-25 118 St Unit 1BKew Gardens, NY 11418",QUEENS,40.7041499,-73.83371,11418
NEXTHOME PLATINUM PROPERTIES,House,950000,4,2,2200,Brooklyn,"68 Schenck AveBrooklyn, NY 11207",MANHATTAN,40.6795412,-73.8904428,11207
Century Homes Realty Group LLC,House,1688888,4,3,2364,Little Neck,"373 Manor RdLittle Neck, NY 11363",MANHATTAN,40.7773521,-73.7464296,11363
Elite Synergy Realty Inc,Multi-family home,689000,6,3,2184,Bronx,"262 E 197th StBronx, NY 10458",MANHATTAN,40.8681745,-73.8897652,10458
Charles Rutenberg Realty Inc,Co-op,419000,2,1,2184,Flushing,"150-58 Jewel Ave Unit 75AFlushing, NY 11367",QUEENS,40.7312799,-73.8192399,11367
Bright Horizons Realty Inc,House,1199000,4,2,2184,Brooklyn,"4193 Ocean AveBrooklyn, NY 11235",MANHATTAN,40.5783044,-73.9471644,11235
Bright Horizons Realty Inc,House,2150000,4,2,2184,Brooklyn,"153 Jaffrey StBrooklyn, NY 11235",MANHATTAN,40.5790771,-73.9425262,11235
Keller Williams Realty Greater Nassau,House,899000,3,4,2208,Staten Island,"82 Mulberry AveStaten Island, NY 10314",MANHATTAN,40.5955552,-74.1677939,10314
qvtopservice,House,675000,3,2,2184,Queens Village,"102-26 213th StQueens Village, NY 11429",MANHATTAN,40.7121557,-73.7452804,11429
BHHS New York Properties,Co-op,875000,2,1,2184,New York,"20 E 35th St Apt 3DNew York, NY 10016",MANHATTAN,40.748098,-73.9824791,10016
Corcoran Westside Columbus,House,899000,2,1,1130,New York,"529 W 42nd St Apt 6LNew York, NY 10036",MANHATTAN,40.7604194,-73.9968086,10036
EBMG LLC,Co-op,219000,2,1,2184,Woodhaven,"8377 Woodhaven Blvd Apt 2BWoodhaven, NY 11421",QUEENS,40.6999899,-73.8539,11421
RE/MAX Opulent,Co-op,120000,2,1,600,Bronx,"2962 Decatur Ave Apt 1CBronx, NY 10458",BRONX,40.8683656,-73.8832093,10458
Corcoran,Condo,470000,2,1,2184,New York,"581 Academy St Apt 1GNew York, NY 10034",MANHATTAN,40.8640024,-73.9231918,10034
ERA Insite Realty Services,Co-op,229000,2,1,950,Bronx,"4315 Webster Ave Apt 3LBronx, NY 10470",BRONX,40.8995193,-73.8623678,10470
Momentum Real Estate Llc,Multi-family home,3000000,3,32,11760,Brooklyn,"8001 New Utrecht AveBrooklyn, NY 11214",MANHATTAN,40.6115483,-74.0008656,11214
Douglas Elliman,Pending,1199000,5,4,2184,Kew Gardens,"116 Audley StKew Gardens, NY 11415",MANHATTAN,40.7090268,-73.8335998,11415
Remax Edge,Multi-family home,1498000,9,8,2961,Brooklyn,"3812 Cypress AveBrooklyn, NY 11224",MANHATTAN,40.5784148,-74.0064631,11224
Corcoran East Side,Condo,2000000,4,3,2000,New York,"411 E 53rd St # 4HJNew York, NY 10022",MANHATTAN,40.7557937,-73.9642805,10022
"Nest Seekers International, Midtown",Condo,50000000,6,6,6569,New York,"100 Vandam St Apt 20ANew York, NY 10013",MANHATTAN,40.7266327,-74.0088321,10013
Jerry Fink Real Estate Inc,House,550000,3,2,2184,Howard Beach,"156-23 88th StHoward Beach, NY 11414",MANHATTAN,40.6628113,-73.8453503,11414
Ditommaso Real Estate,Pending,499000,3,1,1176,Staten Island,"161 Greenleaf AveStaten Island, NY 10310",MANHATTAN,40.6265387,-74.1263932,10310
"Annkey Realty, Inc.",Multi-family home,800000,6,3,2202,Bronx,"860 E 232nd StBronx, NY 10466",MANHATTAN,40.8909806,-73.8528183,10466
"Century 21 Amiable Realty Group II, Inc.",Co-op,239000,2,1,798,Howard Beach,"155-07 86th St Unit 102Howard Beach, NY 11414",QUEENS,40.6649999,-73.84857,11414
Sotheby's International Realty,Townhouse,29950000,10,13,8750,New York,"26 Washington Sq NNew York, NY 10011",MANHATTAN,40.7322213,-73.9986277,10011
RE MAX Elite,House,674999,3,2,1440,Staten Island,"107 Salamander CtStaten Island, NY 10309",MANHATTAN,40.5394128,-74.2228391,10309
COMPASS,Townhouse,14000000,5,2,7200,Brooklyn,"38 Monroe PlBrooklyn, NY 11201",MANHATTAN,40.6958593,-73.9925234,11201
Voro Llc,House,1228000,3,2,950,Flushing,"154-69 26th AveFlushing, NY 11354",MANHATTAN,40.7739766,-73.8070988,11354
Goldstone N Y Realty Llc,Condo,880000,4,4,2400,College Point,"120-10 Ketch Ct Unit 34College Point, NY 11356",MANHATTAN,40.7934553,-73.8471618,11356
Keller Williams Rlty Landmark,Co-op,369888,2,2,2184,Rego Park,"98-120 Queens Blvd Unit 6KRego Park, NY 11374",QUEENS,40.726843,-73.85458,11374
Douglas Elliman,Co-op,500000,2,2,2184,New York,"465 Park Ave Unit 34ENew York, NY 10022",MANHATTAN,40.7616461,-73.9701294,10022
BKNY TROY AVENUE REALTY CORP,Multi-family home,499000,4,3,2184,Hollis,"205-05 Jamaica AveHollis, NY 11423",MANHATTAN,40.713904,-73.754948,11423
Keller Williams Rlty Landmark,House,2998888,5,2,3800,Bayside,"28-05 216th StBayside, NY 11360",MANHATTAN,40.7782443,-73.7706926,11360
"Robert E. Hill, Inc.",Co-op,175849,2,1,850,Bronx,"60 Knolls Cres Apt 8MBronx, NY 10463",BRONX,40.879078,-73.9175196,10463
Exp Realty,Multi-family home,899975,6,3,1952,Bronx,"861 E 231st StBronx, NY 10466",MANHATTAN,40.8906352,-73.853094,10466
Trusted Property Advisors Corp,House,1474000,4,2,2050,Forest Hills,"71-28 Manse StForest Hills, NY 11375",MANHATTAN,40.7114417,-73.8490778,11375
"Neuhaus Realty, Inc.",House,2750000,6,5,6300,Staten Island,"79 Grandview TerStaten Island, NY 10308",MANHATTAN,40.5462525,-74.1481727,10308
Re/Max Edge,House,3999000,3,2,3428,Brooklyn,"7923 11th AveBrooklyn, NY 11228",MANHATTAN,40.6201406,-74.014486,11228
EXIT REALTY FIRST CHOICE,House,1288000,4,2,1700,Fresh Meadows,"76-66 174th StFresh Meadows, NY 11366",MANHATTAN,40.7248068,-73.7953763,11366
5 Boro Realty Corp,Foreclosure,499000,4,2,1428,Brooklyn,"719 Vermont StBrooklyn, NY 11207",MANHATTAN,40.6618245,-73.890638,11207
DiTommaso Real Estate,House,989000,4,4,2400,Staten Island,"70 Weed AveStaten Island, NY 10306",MANHATTAN,40.5657552,-74.1051158,10306
Prospes Real Estate Corp,House,650000,3,2,2184,Staten Island,"827 Richmond RdStaten Island, NY 10304",MANHATTAN,40.6071254,-74.0925892,10304
"Robert DeFalco Realty, Inc.",Contingent,1999999,4,4,4803,Staten Island,"181 Androvette AveStaten Island, NY 10312",MANHATTAN,40.5268622,-74.189752,10312
Serhant,Townhouse,5990000,4,4,3750,New York,"96 Bank StNew York, NY 10014",MANHATTAN,40.7363228,-74.0064402,10014
TREBACH REALTY INC,Co-op,1235000,3,2,2184,Bronx,"2501 Palisade Ave Apt D2Bronx, NY 10463",BRONX,40.8799728,-73.9221419,10463
City Connections Realty,Co-op,785000,1,1,2184,New York,"10 Park Ave Unit 10KNew York, NY 10016",MANHATTAN,40.7473555,-73.9813841,10016
Coldwell Banker Reliable Real Estate,Co-op,750000,3,2,1750,New York,"870 Riverside Dr Apt 5DNew York, NY 10032",MANHATTAN,40.8368955,-73.9465033,10032
Modern Spaces Love Your Place,Multi-family home,1400000,3,3,2184,Long Island City,"25-01 23rd AveLong Island City, NY 11105",MANHATTAN,40.7770879,-73.9162687,11105
CENTURY 21 Kafcos Realty,Multi-family home,865000,6,3,2464,Bronx,"910 Revere AveBronx, NY 10465",MANHATTAN,40.8297242,-73.8263414,10465
COMPASS,Co-op,324000,1,1,2184,Queens,"35-31 85th St Unit 7FQueens, NY 11372",MANHATTAN,40.7512505,-73.8814433,11372
Matias Real Estate,House,1100000,3,4,3750,Staten Island,"7126 Amboy RdStaten Island, NY 10307",MANHATTAN,40.5136885,-74.2364803,10307
A P Services Inc,Multi-family home,2295000,3,7,2184,Brooklyn,"4415 Atlantic AveBrooklyn, NY 11224",MANHATTAN,40.5757955,-74.009975,11224
Douglas Elliman,House,8950000,4,2,2570,Brooklyn,"69 Orange StBrooklyn, NY 11201",MANHATTAN,40.6990407,-73.9929045,11201
RE MAX Central,Multi-family home,1348888,3,4,2450,Staten Island,"252 Ionia AveStaten Island, NY 10312",MANHATTAN,40.5430335,-74.182131,10312
"Robert E. Hill, Inc.",Co-op,220000,2,1,850,Bronx,"5620 Netherland Ave Apt 3GBronx, NY 10471",BRONX,40.9049354,-73.9060897,10471
Brown Harris Stevens,Co-op,185000,1,1,2184,Brooklyn,"789 Macdonough St Apt 4GBrooklyn, NY 11233",BROOKLYN,40.684563,-73.914482,11233
Houlihan Lawrence,House,499000,2,2,1350,Bronx,"514 E 235th StBronx, NY 10470",MANHATTAN,40.8978428,-73.8633611,10470
ROBERT DEFALCO REALTY INC,Multi-family home,999999,4,3,1980,Brooklyn,"362 90th StBrooklyn, NY 11209",MANHATTAN,40.620076,-74.0306109,11209
Corcoran East Side,Townhouse,4995000,2,2,2000,New York,"51 Barrow StNew York, NY 10014",MANHATTAN,40.7319679,-74.0043858,10014
Corcoran Park Avenue South,Pending,700000,2,1,2184,New York,"248 E 7th St # 9/10New York, NY 10009",MANHATTAN,40.7235651,-73.9781799,10009
RE MAX 1st Choice,House,1180000,4,4,1820,Little Neck,"45-33 Zion StLittle Neck, NY 11362",MANHATTAN,40.7668584,-73.7375575,11362
RE MAX 1st Choice,Condo,609000,2,2,2184,Flushing,"132-03 Sanford Ave Unit 3HFlushing, NY 11355",QUEENS,40.7550154,-73.8329807,11355
"AMERIHOMES REALTY OF NY, INC.",Co-op,250000,2,1,950,Brooklyn,"2525 W 2nd St Apt 2EBrooklyn, NY 11223",BROOKLYN,40.5875717,-73.9712821,11223
Real Broker NY LLC,House,689000,3,2,2184,South Ozone Park,"111-45 120th StSouth Ozone Park, NY 11420",MANHATTAN,40.6794706,-73.8195636,11420
Jaymore Realty Llc,Multi-family home,585000,4,2,2184,Far Rockaway,"12-86 Augustina AveFar Rockaway, NY 11691",MANHATTAN,40.6082787,-73.7495095,11691
"Robert Defalco Realty, Inc.",Condo,109500,3,1,550,Staten Island,"1000 Clove Rd Apt 9FStaten Island, NY 10301",STATEN_ISLAND,40.6202645,-74.1099106,10301
Corcoran SoHo,Co-op,299000,3,1,640,New York,"410 E 57th St Apt 8BNew York, NY 10022",MANHATTAN,40.7578323,-73.9624557,10022
Re/Max Central,House,995000,3,2,1987,Staten Island,"23 Howard AveStaten Island, NY 10301",MANHATTAN,40.6293682,-74.0870368,10301
RE MAX Real Estate Professionals,Multi-family home,1499000,6,2,3144,Brooklyn,"338 77th StBrooklyn, NY 11209",MANHATTAN,40.629498,-74.02725,11209
Douglas Elliman,Co-op,299000,2,1,2184,Flushing,"193-15 37 Ave Unit 177Flushing, NY 11358",QUEENS,40.7626299,-73.78916,11358
New Heights Realty,Co-op,279000,3,1,550,New York,"57 Park Terrace Ter W Unit 3FNew York, NY 10034",MANHATTAN,40.8712698,-73.9178529,10034
Joshuas Realty,House,235000,3,2,2184,South Ozone Park,"131-16 115 AveSouth Ozone Park, NY 11420",MANHATTAN,40.6797652,-73.8091668,11420
COMPASS,Co-op,17900000,6,4,2184,Manhattan,"41 Central Park W Unit 11AManhattan, NY 10023",MANHATTAN,40.7713789,-73.9798579,10023
COMPASS,Townhouse,950000,5,3,2288,Brooklyn,"914 Pine StBrooklyn, NY 11208",MANHATTAN,40.6626245,-73.8680207,11208
KELLER WILLIAMS REALTY LANDMARK II,House,859000,2,2,950,Flushing,"149-47 26th AveFlushing, NY 11354",MANHATTAN,40.7746518,-73.81583,11354
"Compass Greater Ny, Llc",House,1999000,5,4,2000,Queens,"34-51 74th StQueens, NY 11372",MANHATTAN,40.7518706,-73.8922741,11372
Lombardo Homes & Estates,Multi-family home,1458888,8,2,2988,Hollis,"86-84 188th StHollis, NY 11423",MANHATTAN,40.718209,-73.775417,11423
Ha Jones Realty & Management,House,650000,5,3,2184,Brooklyn,"36A Rochester AveBrooklyn, NY 11233",MANHATTAN,40.677921,-73.9277691,11233
RE MAX Real Estate Professionals,House,1100000,4,3,1400,Brooklyn,"7619 10th AveBrooklyn, NY 11228",MANHATTAN,40.6231568,-74.0148411,11228
E Realty International Corp,Condo,478900,1,1,554,Rego Park,"65-18 Austin St Unit 2CRego Park, NY 11374",QUEENS,40.7259759,-73.8599803,11374
Atlantic Apple Realty,Multi-family home,560000,5,2,2624,Staten Island,"45 St Pauls AveStaten Island, NY 10301",MANHATTAN,40.6366099,-74.0778245,10301
Momentum Real Estate LLC,Multi-family home,868000,3,4,2024,Staten Island,"108 Dutchess AveStaten Island, NY 10304",MANHATTAN,40.5963657,-74.0997473,10304
Regent Realty,House,999000,3,2,2184,Flushing,"196-11 45th AveFlushing, NY 11358",MANHATTAN,40.7562931,-73.7849475,11358
Harlem Lofts Inc.,Co-op,149000,1,1,375,New York,"219 W 144th St Apt 41New York, NY 10030",MANHATTAN,40.8213094,-73.9399984,10030
Island Advantage Realty Llc,House,594900,4,2,1355,Rosedale,"121-42 Laurelton PkwyRosedale, NY 11422",MANHATTAN,40.6824809,-73.7279494,11422
Behfar Team Llc,House,799000,3,2,2184,Brooklyn,"1462 E 23rd StBrooklyn, NY 11210",MANHATTAN,40.6146692,-73.9515915,11210
Homesmart Crossisland,Multi-family home,985000,6,5,2184,Springfield Gardens,"145-90 222nd StSpringfield Gardens, NY 11413",MANHATTAN,40.6615069,-73.7581972,11413
Jortevsky Real Estate Firm,House,685000,4,2,2625,Saint Albans,"116-33 198th StSaint Albans, NY 11412",MANHATTAN,40.6946313,-73.7540488,11412
Mark International Real Estate,Contingent,479888,3,2,1188,Staten Island,"124 Hampton PlStaten Island, NY 10309",MANHATTAN,40.549099,-74.2148258,10309
Wolf Properties Inc,Pending,2500000,3,2,2184,Brooklyn,"32 Village Rd NBrooklyn, NY 11223",MANHATTAN,40.5938747,-73.9742907,11223
Keller Williams NYC,Condo,355000,1,1,514,Brooklyn,"961 Washington Ave Apt 1GBrooklyn, NY 11225",BROOKLYN,40.6660348,-73.9612418,11225
Corcoran Westside Columbus,Co-op,260000,2,1,2184,New York,"515 W 135th St Apt 4CNew York, NY 10031",MANHATTAN,40.8196151,-73.9532441,10031
COMPASS,Townhouse,2600000,5,5,4057,Brooklyn,"65 Gates AveBrooklyn, NY 11238",MANHATTAN,40.6846326,-73.9660028,11238
Wolf Properties Inc,Pending,2500000,3,2,2184,Brooklyn,"30 Village Rd NBrooklyn, NY 11223",MANHATTAN,40.5938803,-73.9743763,11223
East Coast Realty Partners,Co-op,220000,1,1,2184,Rego Park,"6565 Wetherole St Apt 4ORego Park, NY 11374",QUEENS,40.725937,-73.8572908,11374
Charles H. Greenthal Property,Co-op,489000,2,2,1549,Floral Park,"26910 Grand Central Pkwy Apt 27GFloral Park, NY 11005",QUEENS,40.7577991,-73.7159564,11005
BERGEN BASIN REALTY,Multi-family home,1288000,5,2,2375,Brooklyn,"1853 Benson AveBrooklyn, NY 11214",MANHATTAN,40.6042803,-74.0030547,11214
COMPASS,Condo,200000,2,3,1260,Manhattan,"2 E 55th St Unit 1136W15Manhattan, NY 10022",MANHATTAN,40.7613979,-73.9746128,10022
Prime Realty,House,625000,3,1,2184,Middle Village,"64-01 Pleasantview StMiddle Village, NY 11379",MANHATTAN,40.7158932,-73.8820836,11379
Elegran Real Estate And Development,Condo,2245000,2,3,1724,New York,"171 E 84th St Apt 3BNew York, NY 10028",MANHATTAN,40.7779756,-73.9551546,10028
Douglas Elliman,House,899000,3,2,2184,Howard Beach,"163-43 90th StHoward Beach, NY 11414",MANHATTAN,40.6511946,-73.8405509,11414
COMPASS,Townhouse,575000,4,2,1330,Brooklyn,"411 Montauk AveBrooklyn, NY 11208",MANHATTAN,40.6683511,-73.8757315,11208
"BEN BAY REALTY, CO.",House,588888,4,2,1640,Staten Island,"187 Latimer AveStaten Island, NY 10314",MANHATTAN,40.5986261,-74.1817717,10314
"Kremer Realty Ii, Inc",Multi-family home,650000,6,2,2184,Bronx,"3106 Mickle AveBronx, NY 10469",MANHATTAN,40.8719262,-73.8423808,10469
Fave Realty Inc,Multi-family home,899999,8,4,2184,Brooklyn,"375 Linden BlvdBrooklyn, NY 11203",MANHATTAN,40.6531909,-73.9453969,11203
RE MAX Voyage,Co-op,315000,1,1,850,Jackson Heights,"35-31 85th St Unit 2MJackson Heights, NY 11372",QUEENS,40.7520799,-73.88188,11372
Houlihan & O'malley R. E. Serv,Multi-family home,1599999,6,2,4073,Bronx,"3176 Tierney PlBronx, NY 10465",MANHATTAN,40.813524,-73.802218,10465
COMPASS,Townhouse,10000000,5,2,5660,Manhattan,"45 W 95th StManhattan, NY 10025",MANHATTAN,40.791801,-73.9665998,10025
"Neuhaus Realty, Inc.",House,825000,4,2,2230,Staten Island,"263 Getz AveStaten Island, NY 10312",MANHATTAN,40.5532787,-74.1649844,10312
Homefinders of SI Inc.,Contingent,795000,3,3,1860,Staten Island,"166 Bancroft AveStaten Island, NY 10306",MANHATTAN,40.5763544,-74.1099794,10306
BERGEN BASIN REALTY,House,690000,3,2,1325,Brooklyn,"2041 E 64th StBrooklyn, NY 11234",MANHATTAN,40.6173476,-73.9131449,11234
Real Estate Executives,House,1249949,4,4,2720,Staten Island,"21 Sanford StStaten Island, NY 10307",MANHATTAN,40.5107045,-74.2389945,10307
Keystone Realty USA Corp,House,799000,4,3,2184,Brooklyn,"921 E 98th StBrooklyn, NY 11236",MANHATTAN,40.6483188,-73.9039932,11236
NoBroker,Co-op,115000,3,1,2184,Jamaica,"87-15 165th St Unit 6CJamaica, NY 11432",QUEENS,40.7104509,-73.7982064,11432
Keller Williams Legendary,House,2088000,4,4,2394,Bayside,"24-40 Little Neck BlvdBayside, NY 11360",MANHATTAN,40.7803566,-73.771297,11360
Corcoran Park Slope,Condo,699000,2,2,1766,Queens,"124-11 Rockaway Beach Blvd # 1CQueens, NY 11694",QUEENS,40.5771307,-73.8443159,11694
Lopez Realty Team Inc,Co-op,119000,1,1,650,Bronx,"754 Brady Ave Apt 205Bronx, NY 10462",BRONX,40.8522378,-73.8655788,10462
Winzone Realty Inc,Multi-family home,1275000,5,3,2184,East Elmhurst,"32-58 86th StEast Elmhurst, NY 11369",MANHATTAN,40.7563571,-73.8819905,11369
Keystone Realty USA Corp,Condo,410000,2,2,2184,Howard Beach,"151-35 84th St Unit 3MHoward Beach, NY 11414",QUEENS,40.6668174,-73.8499468,11414
Re/Max In The City,Co-op,309900,2,1,900,Bronx,"679 W 239th St Apt 5JBronx, NY 10463",BRONX,40.8901764,-73.9146261,10463
Nareema Baksh Real Estate,Condo,435000,3,2,1034,Bronx,"2877 Ely AveBronx, NY 10469",MANHATTAN,40.8690609,-73.835715,10469
Tiffany Moves You Inc,House,879000,3,3,2184,College Point,"14-11 111th StCollege Point, NY 11356",MANHATTAN,40.785245,-73.8557,11356
Keller Williams Realty Group,Co-op,325000,3,1,622,New York,"525 W 134th St Apt 2ENew York, NY 10031",MANHATTAN,40.8192151,-73.9544658,10031
Legacy Estate Realty,Multi-family home,1195000,16,8,2184,Brooklyn,"453 42nd StBrooklyn, NY 11232",MANHATTAN,40.6502185,-74.0063562,11232
Myc & Associates Inc,Co-op,1900000,3,2,2200,New York,"160 Chambers St Apt 4New York, NY 10007",MANHATTAN,40.7159669,-74.010573,10007
Crifasi Real Estate Inc,House,868000,3,2,2184,Middle Village,"64-04 71st StMiddle Village, NY 11379",MANHATTAN,40.7158631,-73.8843791,11379
Winzone Realty Inc,Multi-family home,1770000,7,4,2184,College Point,"924 129th StCollege Point, NY 11356",MANHATTAN,40.7885034,-73.8393008,11356
O Kane Realty,Multi-family home,899000,5,3,1480,Maspeth,"58-31 71st StMaspeth, NY 11378",MANHATTAN,40.7253273,-73.8900898,11378
Corcoran SoHo,Pending,990000,2,2,960,Brooklyn,"253 Tompkins Ave Apt 4BBrooklyn, NY 11216",BROOKLYN,40.6900217,-73.945006,11216
Maureen Folan R E Group Llc,House,818000,3,3,2184,Flushing,"138-38 63 AveFlushing, NY 11367",MANHATTAN,40.7396171,-73.8267571,11367
Sowae Corp,House,409000,4,2,2184,Flushing,"144-28 72nd RdFlushing, NY 11367",MANHATTAN,40.726173,-73.8202303,11367
RE MAX Edge,Pending,679000,3,2,1474,Brooklyn,"3719 Mermaid Ave Unit 2BBrooklyn, NY 11224",BROOKLYN,40.574905,-74.0036857,11224
Douglas Elliman,Co-op,259000,1,1,2184,Forest Hills,"72-81 113 St Unit 6KForest Hills, NY 11375",QUEENS,40.7199582,-73.8357232,11375
